~Version information
  VERS.                            1.20: CWLS LAS  -  VERSION 1.20
  WRAP.                              NO: One line per depth step
~Well information
# MNEM.UNIT
# ====.=========== ====================:===================
  STRT.M                         146.40: First depth in file
  STOP.M                         410.40: Last depth in file
  STEP.M                           0.20: Depth increment
  NULL.                           -9999: Null values
  WELL.                            WELL: 1475       
  UWI .                  UNIQUE WELL ID: 1475 SHKA                
  FLD .                           FIELD: Шкаповская-ЭКС                   
  LOC .                        LOCATION:
  CNTY.                          COUNTY:
  STAT.                           STATE: Башкортостан
  CTRY.                         COUNTRY: Россия
  SRVC.                 SERVICE COMPANY: ГИРС ЦОИ                         
  DATE.                        LOG DATE: 10.06.2004
  API .                      API NUMBER:
~Parameter information block
# MNEM.UNIT
# ====.================================:===================
  ДТВР.               20.02.2004 00:00 : Дата и время замера кривой
  ДТИС.                     20.02.2004 : Дата окончания исследований
  СПМС.                цифр.ан/при рег : Способ получ цифрового массива
  ОЦФР.                                : Устройство оцифровки
  ПРХЖ.                 открытый ствол : Условия прохождения прибора
  ТПЖК.                           ГЛИН : Тип промывочной жидкости для кривой
  ПЛПЖ.ГСМ3                        1.2 : Плотность промывочной жидкости
  РС  .ОММ                       0.075 : Сопротивление промывочной жидкости
  ДНОМ.ММ                          295 : Номинальный диаметр скважины
  ТКРВ.                            ИСХ : Тип кривой по способу преобразования
  СОКР.                  версия БашГИС : Способ обработки кривой параметра
~Other information
  Кривая ИК искажена влиянием низкого сопротивления промыв.ж-ти и большого диаметра скважины. 
# ------------------------- REMARKS  AREA ------------------
~Curve information
# MNEM.UNIT
# ====.================================:===================
  DEPT .M                              : Depth curve
  БК   .ОММ                            : БК
#  ТАПП.                     К1А-723-М : Тип аппаратуры                                                                        
#  НАПП.                             5 : Номер аппаратуры (прибора) (заводской)                                                
  ИКП  .ОММ                            : ИКП
#  ТАПП.                     К1А-723-М : Тип аппаратуры                                                                        
#  НАПП.                             5 : Номер аппаратуры (прибора)                                                            
#  ЗОНД.                           3И1 : Типоразмер зонда                                                                      
  БКЛ  .БР                             : БКЛ
~ASCII Log Data
# ...
 329.60   3072.112   28.612 3.487 
 329.80   1656.799   29.225 3.219 
 330.00   2467.790   28.940 3.392 
 330.20   7278.217   28.049 3.862 
 330.40  24360.293   26.613 4.387 
 330.60  26259.863   24.479 4.419 
 330.80  15467.351   22.655 4.189 
 331.00   6606.962   22.216 3.820 
 331.20   3436.128   24.227 3.536 
 331.40   2980.824   28.866 3.474 
 331.60   5350.375   34.840 3.728 
 331.80   9201.378   36.786 3.964 
 332.00  10305.875   34.069 4.013 
 332.20   7907.650   30.385 3.898 
 332.40   3934.855   28.878 3.595 
 332.60   1841.295   28.755 3.265 
 332.80   1589.505   28.094 3.201 
 333.00   1685.181   26.319 3.227 
 333.20   2832.250   26.480 3.452 
 333.40   4869.389   35.183 3.687 
 333.60   7351.976   85.187 3.866 
 333.80   9039.464   96.000 3.956 
 334.00  11613.761   96.000 4.065 
 334.20  13273.701   96.000 4.123 
 334.40  13440.063   96.000 4.128 
 334.60  12938.975   96.000 4.112 
 334.80  11878.116   96.000 4.075 
 335.00   9978.399   96.000 3.999 
 335.20   8382.563   39.482 3.923 
 335.40   7144.624   22.502 3.854 
 335.60   5998.110   16.759 3.778 
 335.80   3607.490   13.922 3.557 
 336.00   2071.314   14.021 3.316 
 336.20   1410.924   19.689 3.150 
 336.40   1518.768   43.569 3.181 
 336.60   1915.197   96.000 3.282 
 336.80   2447.015   96.000 3.389 
 337.00   2819.872   96.000 3.450 
 337.20   2734.024   75.270 3.437 
 337.40   1197.635   33.315 3.078 
 337.60    372.030   24.756 2.571 
 337.80    210.522   25.712 2.323 
 338.00    302.674   31.622 2.481 
 338.20    375.311   30.829 2.574 
 338.40    356.102   26.092 2.552 
 338.60    383.466   22.838 2.584 
 338.80    350.577   22.719 2.545 
 339.00    289.617   23.654 2.462 
 339.20    258.449   23.813 2.412 
 339.40    269.855   21.904 2.431 
 339.60    273.958   18.997 2.438 
 339.80    307.571   17.341 2.488 
 340.00    436.318   18.055 2.640 
 340.20    998.795   21.417 2.999 
 340.40   2903.714   26.890 3.463 
 340.60   5984.963   28.675 3.777 
 340.80   5817.283   25.585 3.765 
 341.00   5214.328   23.019 3.717 
 341.20   3483.339   25.119 3.542 
 341.40   1072.851   29.331 3.031 
 341.60    307.827   29.749 2.488 
 341.80    155.611   26.811 2.192 
 342.00    108.502   23.345 2.035 
 342.20     81.473   20.862 1.911 
 342.40     81.912   18.438 1.913 
 342.60    167.781   18.261 2.225 
 342.80    654.554   19.423 2.816 
 343.00   1830.546   21.021 3.263 
 343.20   2463.613   24.421 3.392 
 343.40   2400.771   28.800 3.380 
 343.60   2013.685   30.520 3.304 
 343.80   1702.638   30.726 3.231 
 344.00   3029.152   31.413 3.481 
 344.20   7456.176   34.426 3.873 
 344.40  11897.395   38.070 4.075 
 344.60   6966.532   40.064 3.843 
 344.80   2913.419   36.968 3.464 
 345.00   1510.077   30.289 3.179 
 345.20   1248.740   26.681 3.096 
 345.40   1460.412   24.679 3.164 
 345.60   3484.313   23.586 3.542 
 345.80   6879.934   23.952 3.838 
 346.00   8280.566   26.129 3.918 
 346.20   6974.576   30.525 3.844 
 346.40   5661.470   46.283 3.753 
 346.60   3658.106   96.000 3.563 
 346.80   1967.216   96.000 3.294 
 347.00   1201.645   96.000 3.080 
 347.20   1319.105   68.558 3.120 
 347.40   1215.996   28.626 3.085 
 347.60    792.422   16.570 2.899 
 347.80    488.342   12.216 2.689 
 348.00    319.139   11.169 2.504 
 348.20    183.832   13.005 2.264 
 348.40    102.957   18.098 2.013 
 348.60     79.429   24.495 1.900 
 348.80     69.124   29.151 1.840 
 349.00     78.046   41.252 1.892 
 349.20     91.270   82.949 1.960 
 349.40    108.298   96.000 2.035 
 349.60    161.468   96.000 2.208 
 349.80    469.659   94.200 2.672 
 350.00   1279.242   37.938 3.107 
 350.20   1592.433   22.375 3.202 
 350.40    999.934   19.814 3.000 
 350.60    657.190   22.091 2.818 
 350.80    696.304   26.705 2.843 
 351.00    862.498   29.192 2.936 
 351.20    594.476   28.167 2.774 
 351.40    269.392   26.733 2.430 
 351.60    195.825   22.562 2.292 
 351.80    274.310   18.862 2.438 
 352.00    454.499   18.194 2.658 
 352.20    425.643   22.033 2.629 
 352.40    182.102   28.059 2.260 
 352.60     64.300   28.400 1.808 
 352.80     30.843   26.571 1.489 
 353.00     28.083   30.241 1.448 
 353.20     53.396   59.292 1.728 
 353.40    137.385   96.000 2.138 
 353.60    351.805   96.000 2.546 
 353.80   1559.424   96.000 3.193 
 354.00   5712.142   96.000 3.757 
 354.20  14102.552   78.492 4.149 
 354.40  20850.414   82.569 4.319 
 354.60   7468.667   96.000 3.873 
 354.80   1208.454   96.000 3.082 
 355.00    189.461   96.000 2.278 
 355.20    112.846   96.000 2.052 
 355.40    114.374   96.000 2.058 
 355.60     85.898   96.000 1.934 
 355.80     37.751   96.000 1.577 
 356.00     26.233   96.000 1.419 
 356.20     42.438   96.000 1.628 
 356.40     92.526   96.000 1.966 
 356.60    200.702   96.000 2.303 
 356.80    390.777   88.346 2.592 
 357.00    688.222   44.928 2.838 
 357.20   1080.648   35.694 3.034 
 357.40   1245.558   22.047 3.095 
 357.60   1011.826   17.163 3.005 
 357.80    801.378   17.970 2.904 
 358.00    756.456   21.808 2.879 
 358.20    770.725   22.392 2.887 
 358.40    742.766   18.144 2.871 
 358.60    659.511   16.378 2.819 
 358.80    598.802   18.035 2.777 
 359.00    565.106   20.557 2.752 
 359.20    539.390   21.729 2.732 
 359.40    514.409   19.781 2.711 
 359.60    497.461   16.623 2.697 
 359.80    448.299   15.617 2.652 
 360.00    443.111   17.357 2.647 
 360.20    495.456   20.649 2.695 
 360.40    595.944   24.477 2.775 
 360.60    660.077   28.196 2.820 
 360.80    709.055   35.968 2.851 
 361.00    680.230   49.604 2.833 
 361.20    632.123   75.385 2.801 
 361.40    569.111   81.698 2.755 
 361.60    483.420   78.980 2.684 
 361.80    432.444   84.799 2.636 
 362.00    413.594   90.367 2.617 
 362.20    438.486   95.084 2.642 
 362.40    461.501   96.000 2.664 
 362.60    513.898   92.965 2.711 
 362.80    536.523   58.302 2.730 
 363.00    511.158   33.068 2.709 
 363.20    461.113   22.118 2.664 
 363.40    418.632   16.716 2.622 
 363.60    412.308   15.373 2.615 
 363.80    421.191   17.453 2.624 
 364.00    431.886   21.679 2.635 
 364.20    451.403   26.724 2.655 
 364.40    473.706   30.731 2.676 
 364.60    482.627   38.742 2.684 
 364.80    474.852   70.171 2.677 
 365.00    455.124   96.000 2.658 
 365.20    431.476   96.000 2.635 
 365.40    414.153   96.000 2.617 
 365.60    409.737   73.776 2.613 
 365.80    395.821   42.082 2.597 
 366.00    379.913   29.617 2.580 
 366.20    369.911   26.154 2.568 
 366.40    367.172   28.959 2.565 
 366.60    362.953   37.611 2.560 
 366.80    356.222   45.791 2.552 
 367.00    350.035   65.710 2.544 
 367.20    344.275   82.818 2.537 
 367.40    341.102   84.057 2.533 
 367.60    341.022   75.275 2.533 
 367.80    339.764   69.576 2.531 
 368.00    332.102   68.083 2.521 
 368.20    316.266   67.831 2.500 
 368.40    288.546   57.935 2.460 
 368.60    266.065   44.895 2.425 
 368.80    254.697   43.001 2.406 
 369.00    248.653   43.212 2.396 
 369.20    257.861   41.918 2.411 
 369.40    285.164   39.764 2.455 
 369.60    306.521   39.630 2.486 
 369.80    312.518   40.996 2.495 
 370.00    304.693   44.923 2.484 
 370.20    284.691   46.953 2.454 
 370.40    266.285   43.003 2.425 
 370.60    258.259   33.631 2.412 
 370.80    276.136   27.422 2.441 
 371.00    289.252   26.592 2.461 
 371.20    286.982   31.354 2.458 
 371.40    281.522   46.541 2.450 
 371.60    278.965   71.912 2.446 
 371.80    278.875   65.102 2.445 
 372.00    282.156   42.349 2.450 
 372.20    292.247   33.005 2.466 
 372.40    301.114   32.614 2.479 
 372.60    304.101   39.742 2.483 
 372.80    300.138   49.894 2.477 
 373.00    287.052   66.231 2.458 
 373.20    262.310   74.152 2.419 
 373.40    232.874   66.094 2.367 
 373.60    200.991   43.023 2.303 
 373.80    179.471   30.346 2.254 
 374.00    187.247   26.645 2.272 
 374.20    218.091   26.050 2.339 
 374.40    252.563   29.381 2.402 
 374.60    273.157   45.785 2.436 
 374.80    283.137   90.098 2.452 
 375.00    283.248   90.855 2.452 
 375.20    275.794   47.872 2.441 
