~Version information
  VERS.                            1.20: CWLS LAS  -  VERSION 1.20
  WRAP.                              NO: One line per depth step
~Well information
# MNEM.UNIT
# ====.=========== ====================:===================
  STRT.M                         146.40: First depth in file
  STOP.M                         410.40: Last depth in file
  STEP.M                           0.20: Depth increment
  NULL.                           -9999: Null values
  WELL.                            WELL: 1475       
  UWI .                  UNIQUE WELL ID: 1475 SHKA                
  FLD .                           FIELD: Шкаповская-ЭКС                   
  LOC .                        LOCATION:
  CNTY.                          COUNTY:
  STAT.                           STATE: Башкортостан
  CTRY.                         COUNTRY: Россия
  SRVC.                 SERVICE COMPANY: ГИРС ЦОИ                         
  DATE.                        LOG DATE: 10.06.2004
  API .                      API NUMBER:
~Parameter information block
# MNEM.UNIT
# ====.================================:===================
  ДТВР.               20.02.2004 00:00 : Дата и время замера кривой
  ДТИС.                     20.02.2004 : Дата окончания исследований
  СПМС.                цифр.ан/при рег : Способ получ цифрового массива
  ОЦФР.                                : Устройство оцифровки
  ПРХЖ.                 открытый ствол : Условия прохождения прибора
  ТПЖК.                           ГЛИН : Тип промывочной жидкости для кривой
  ПЛПЖ.ГСМ3                        1.2 : Плотность промывочной жидкости
  РС  .ОММ                       0.075 : Сопротивление промывочной жидкости
  ДНОМ.ММ                          295 : Номинальный диаметр скважины
  ТКРВ.                            ИСХ : Тип кривой по способу преобразования
  СОКР.                  версия БашГИС : Способ обработки кривой параметра
~Other information
  Кривая ИК искажена влиянием низкого сопротивления промыв.ж-ти и большого диаметра скважины. 
# ------------------------- REMARKS  AREA ------------------
~Curve information
# MNEM.UNIT
# ====.================================:===================
  DEPT .M                              : Depth curve
  БК   .ОММ                            : БК
#  ТАПП.                     К1А-723-М : Тип аппаратуры                                                                        
#  НАПП.                             5 : Номер аппаратуры (прибора) (заводской)                                                
  ИКП  .ОММ                            : ИКП
#  ТАПП.                     К1А-723-М : Тип аппаратуры                                                                        
#  НАПП.                             5 : Номер аппаратуры (прибора)                                                            
#  ЗОНД.                           3И1 : Типоразмер зонда                                                                      
  БКЛ  .БР                             : БКЛ
~ASCII Log Data
# ...
 192.20     20.225    9.168 1.306 
 192.40     19.486    8.306 1.290 
 192.60     22.388    9.409 1.350 
 192.80     20.066    9.527 1.302 
 193.00     14.696    7.741 1.167 
 193.20      9.008    7.150 0.955 
 193.40      7.584    7.794 0.880 
 193.60     10.532    9.432 1.023 
 193.80     17.146   11.325 1.234 
 194.00     21.899   13.615 1.340 
 194.20     23.916   14.889 1.379 
 194.40     22.124   11.601 1.345 
 194.60     20.877    8.368 1.320 
 194.80     18.735    7.454 1.273 
 195.00     12.757    7.171 1.106 
 195.20      6.995    6.503 0.845 
 195.40      6.124    6.324 0.787 
 195.60      9.494    7.193 0.977 
 195.80     16.136    8.477 1.208 
 196.00     20.080    9.244 1.303 
 196.20     20.570    9.730 1.313 
 196.40     20.580   10.724 1.313 
 196.60     21.430   11.629 1.331 
 196.80     19.265   11.198 1.285 
 197.00     16.230   10.114 1.210 
 197.20     15.311    9.706 1.185 
 197.40     17.446   10.067 1.242 
 197.60     16.949   10.430 1.229 
 197.80     15.663   10.443 1.195 
 198.00     14.818   10.345 1.171 
 198.20     14.724   10.370 1.168 
 198.40     16.078   10.651 1.206 
 198.60     17.742   11.061 1.249 
 198.80     18.199   11.314 1.260 
 199.00     17.407   11.038 1.241 
 199.20     17.909   11.111 1.253 
 199.40     19.394   11.687 1.288 
 199.60     20.465   11.883 1.311 
 199.80     20.941   11.140 1.321 
 200.00     20.675   10.302 1.315 
 200.20     15.781    9.025 1.198 
 200.40      9.504    7.888 0.978 
 200.60      5.741    7.329 0.759 
 200.80      4.613    7.411 0.664 
 201.00      5.854    8.297 0.767 
 201.20     10.166    9.773 1.007 
 201.40     16.572   10.750 1.219 
 201.60     19.776   10.380 1.296 
 201.80     20.178    9.804 1.305 
 202.00     19.795    9.882 1.297 
 202.20     18.913   10.441 1.277 
 202.40     15.780   10.892 1.198 
 202.60     13.859   10.688 1.142 
 202.80     13.164   10.331 1.119 
 203.00     14.243    9.800 1.154 
 203.20     16.189    8.562 1.209 
 203.40     16.260    7.062 1.211 
 203.60     12.222    6.382 1.087 
 203.80      8.758    6.185 0.942 
 204.00      7.756    5.888 0.890 
 204.20      7.609    5.494 0.881 
 204.40      7.824    5.111 0.893 
 204.60      7.860    4.691 0.895 
 204.80      7.790    4.511 0.892 
 205.00      9.566    4.657 0.981 
 205.20     14.491    4.983 1.161 
 205.40     21.569    5.015 1.334 
 205.60     22.404    4.530 1.350 
 205.80     14.077    3.766 1.149 
 206.00      7.188    3.118 0.857 
 206.20      4.879    2.728 0.688 
 206.40      5.016    2.730 0.700 
 206.60      7.665    3.261 0.884 
 206.80     14.362    4.084 1.157 
 207.00     20.313    4.436 1.308 
 207.20     14.990    4.089 1.176 
 207.40      9.136    3.672 0.961 
 207.60      6.934    3.427 0.841 
 207.80      6.375    3.346 0.804 
 208.00      6.952    3.503 0.842 
 208.20      9.415    3.828 0.974 
 208.40     13.158    3.885 1.119 
 208.60     13.620    3.515 1.134 
 208.80     10.416    3.106 1.018 
 209.00      7.963    2.682 0.901 
 209.20      6.615    2.166 0.821 
 209.40      5.923    1.750 0.773 
 209.60      5.858    1.528 0.768 
 209.80      6.296    1.522 0.799 
 210.00      7.330    1.701 0.865 
 210.20      8.322    2.003 0.920 
 210.40      8.767    2.346 0.943 
 210.60      8.821    2.671 0.946 
 210.80      8.266    2.981 0.917 
 211.00      7.261    3.172 0.861 
 211.20      6.160    3.228 0.790 
 211.40      4.991    3.341 0.698 
 211.60      5.458    3.733 0.737 
 211.80      8.343    4.561 0.921 
 212.00     13.293    6.242 1.124 
 212.20     17.837    9.127 1.251 
 212.40     18.657   10.417 1.271 
 212.60     16.977    7.813 1.230 
 212.80     16.415    5.696 1.215 
 213.00     17.397    5.251 1.240 
 213.20     15.939    5.206 1.202 
 213.40     11.296    5.049 1.053 
 213.60      8.104    4.836 0.909 
 213.80      6.001    4.642 0.778 
 214.00      4.992    4.417 0.698 
 214.20      4.789    4.673 0.680 
 214.40      6.080    5.299 0.784 
 214.60     10.404    6.241 1.017 
 214.80     18.784    7.864 1.274 
 215.00     26.165   10.740 1.418 
 215.20     23.915   12.153 1.379 
 215.40     18.876    9.549 1.276 
 215.60     17.621    7.573 1.246 
 215.80     19.111    6.786 1.281 
 216.00     16.596    6.148 1.220 
 216.20     11.200    4.907 1.049 
 216.40      7.859    3.519 0.895 
 216.60      6.646    2.553 0.823 
 216.80      6.325    1.962 0.801 
 217.00      6.309    1.602 0.800 
 217.20      6.240    1.390 0.795 
 217.40      5.920    1.274 0.772 
 217.60      5.602    1.193 0.748 
 217.80      5.510    1.156 0.741 
 218.00      5.837    1.172 0.766 
 218.20      6.493    1.235 0.812 
 218.40      6.807    1.304 0.833 
 218.60      6.676    1.354 0.825 
 218.80      6.828    1.413 0.834 
 219.00      7.141    1.496 0.854 
 219.20      7.195    1.550 0.857 
 219.40      7.122    1.580 0.853 
 219.60      7.057    1.600 0.849 
 219.80      6.803    1.593 0.833 
 220.00      6.644    1.549 0.822 
 220.20      6.284    1.500 0.798 
 220.40      6.071    1.516 0.783 
 220.60      6.793    1.646 0.832 
 220.80      8.146    1.834 0.911 
 221.00      8.550    1.947 0.932 
 221.20      7.460    1.941 0.873 
 221.40      6.292    1.940 0.799 
 221.60      5.747    2.079 0.759 
 221.80      5.308    2.475 0.725 
 222.00      5.657    2.995 0.753 
 222.20      7.565    3.247 0.879 
 222.40     11.462    3.285 1.059 
 222.60     13.277    3.972 1.123 
 222.80     14.743    5.234 1.169 
 223.00     20.607    6.063 1.314 
 223.20     29.156    6.177 1.465 
 223.40     28.835    5.933 1.460 
 223.60     19.568    5.440 1.292 
 223.80     11.132    4.543 1.047 
 224.00      5.782    3.508 0.762 
 224.20      3.792    2.924 0.579 
 224.40      3.956    3.090 0.597 
 224.60      6.852    4.229 0.836 
 224.80     14.741    6.553 1.169 
 225.00     23.123   10.001 1.364 
 225.20     27.061   13.289 1.432 
 225.40     26.370   13.647 1.421 
 225.60     23.748   11.514 1.376 
 225.80     19.098    9.440 1.281 
 226.00     16.626    8.420 1.221 
 226.20     15.925    8.247 1.202 
 226.40     15.085    8.312 1.179 
 226.60     14.342    8.295 1.157 
 226.80     13.910    8.592 1.143 
 227.00     14.700    9.582 1.167 
 227.20     16.046   11.482 1.205 
 227.40     15.700   13.171 1.196 
 227.60     14.120   13.187 1.150 
 227.80     12.958   13.929 1.113 
 228.00     12.950   13.932 1.112 
 228.20     13.817   12.053 1.140 
 228.40     14.888   10.595 1.173 
 228.60     14.919    9.382 1.174 
 228.80     14.462    7.038 1.160 
 229.00     16.518    5.232 1.218 
 229.20     18.509    4.599 1.267 
 229.40     16.938    4.461 1.229 
 229.60     13.269    4.203 1.123 
 229.80      9.881    3.781 0.995 
 230.00      7.203    3.291 0.858 
 230.20      5.507    2.952 0.741 
 230.40      4.787    2.969 0.680 
 230.60      5.301    3.427 0.724 
 230.80      7.333    4.268 0.865 
 231.00      9.550    5.177 0.980 
 231.20     10.593    6.011 1.025 
 231.40     10.624    6.769 1.026 
 231.60     11.690    7.401 1.068 
 231.80     11.737    7.907 1.070 
 232.00     10.572    8.397 1.024 
 232.20      9.321    8.968 0.969 
 232.40     10.441    9.602 1.019 
 232.60     13.739    9.916 1.138 
 232.80     19.381   10.077 1.287 
 233.00     23.717   10.094 1.375 
 233.20     23.824    9.622 1.377 
 233.40     18.131    8.663 1.258 
 233.60     12.511    8.081 1.097 
 233.80     10.913    8.126 1.038 
 234.00     12.444    8.422 1.095 
 234.20     15.094    8.674 1.179 
 234.40     15.494    8.597 1.190 
 234.60     13.124    7.659 1.118 
 234.80      8.105    6.370 0.909 
 235.00      5.207    6.036 0.717 
 235.20      5.893    7.112 0.770 
 235.40     10.036    9.692 1.002 
 235.60     14.204   12.309 1.152 
 235.80     15.281   14.290 1.184 
 236.00     15.169   12.731 1.181 
 236.20     13.899    8.964 1.143 
 236.40     14.678    6.972 1.167 
 236.60     14.436    7.291 1.159 
 236.80     13.503    8.366 1.130 
 237.00     12.385    8.946 1.093 
 237.20     14.185    9.491 1.152 
 237.40     14.717   10.363 1.168 
 237.60     13.350   13.361 1.125 
 237.80     11.660   31.284 1.067 
