~Version information
  VERS.                            1.20: CWLS LAS  -  VERSION 1.20
  WRAP.                              NO: One line per depth step
~Well information
# MNEM.UNIT
# ====.=========== ====================:===================
  STRT.M                         146.40: First depth in file
  STOP.M                         410.40: Last depth in file
  STEP.M                           0.20: Depth increment
  NULL.                           -9999: Null values
  WELL.                            WELL: 1475       
  UWI .                  UNIQUE WELL ID: 1475 SHKA                
  FLD .                           FIELD: Шкаповская-ЭКС                   
  LOC .                        LOCATION:
  CNTY.                          COUNTY:
  STAT.                           STATE: Башкортостан
  CTRY.                         COUNTRY: Россия
  SRVC.                 SERVICE COMPANY: ГИРС ЦОИ                         
  DATE.                        LOG DATE: 10.06.2004
  API .                      API NUMBER:
~Parameter information block
# MNEM.UNIT
# ====.================================:===================
  ДТВР.               20.02.2004 00:00 : Дата и время замера кривой
  ДТИС.                     20.02.2004 : Дата окончания исследований
  СПМС.                цифр.ан/при рег : Способ получ цифрового массива
  ОЦФР.                                : Устройство оцифровки
  ПРХЖ.                 открытый ствол : Условия прохождения прибора
  ТПЖК.                           ГЛИН : Тип промывочной жидкости для кривой
  ПЛПЖ.ГСМ3                        1.2 : Плотность промывочной жидкости
  РС  .ОММ                       0.075 : Сопротивление промывочной жидкости
  ДНОМ.ММ                          295 : Номинальный диаметр скважины
  ТКРВ.                            ИСХ : Тип кривой по способу преобразования
  СОКР.                  версия БашГИС : Способ обработки кривой параметра
~Other information
  Кривая ИК искажена влиянием низкого сопротивления промыв.ж-ти и большого диаметра скважины. 
# ------------------------- REMARKS  AREA ------------------
~Curve information
# MNEM.UNIT
# ====.================================:===================
  DEPT .M                              : Depth curve
  БК   .ОММ                            : БК
#  ТАПП.                     К1А-723-М : Тип аппаратуры                                                                        
#  НАПП.                             5 : Номер аппаратуры (прибора) (заводской)                                                
  ИКП  .ОММ                            : ИКП
#  ТАПП.                     К1А-723-М : Тип аппаратуры                                                                        
#  НАПП.                             5 : Номер аппаратуры (прибора)                                                            
#  ЗОНД.                           3И1 : Типоразмер зонда                                                                      
  БКЛ  .БР                             : БКЛ
~ASCII Log Data
 146.40      1.000    -9999 0.000 
 146.60      1.000    -9999 0.000 
 146.80      1.000    -9999 0.000 
 147.00      1.000    -9999 0.000 
 147.20      1.000    -9999 0.000 
 147.40      1.000    -9999 0.000 
 147.60      1.000    -9999 0.000 
 147.80      1.000    -9999 0.000 
 148.00      1.000    -9999 0.000 
 148.20      1.000    -9999 0.000 
 148.40      1.000    -9999 0.000 
 148.60      1.000    -9999 0.000 
 148.80      1.000    -9999 0.000 
 149.00      1.000    -9999 0.000 
 149.20      1.000    -9999 0.000 
 149.40      1.000    -9999 0.000 
 149.60      1.000    -9999 0.000 
 149.80      1.000 1000.000 0.000 
 150.00      1.000    4.842 0.000 
 150.20      1.012    5.370 0.005 
 150.40      1.867    7.981 0.271 
 150.60      3.338    8.527 0.523 
 150.80      6.546    8.905 0.816 
 151.00      9.945    9.517 0.998 
 151.20     12.109    9.870 1.083 
 151.40     13.209    9.997 1.121 
 151.60     13.846   10.274 1.141 
 151.80     14.506   10.440 1.162 
 152.00     14.770   10.042 1.169 
 152.20     14.999    9.416 1.176 
 152.40     15.460    9.193 1.189 
 152.60     15.909    9.505 1.202 
 152.80     15.898    9.875 1.201 
 153.00     15.454   10.182 1.189 
 153.20     15.366   10.413 1.187 
 153.40     15.312    9.953 1.185 
 153.60     14.961    8.992 1.175 
 153.80     14.758    8.278 1.169 
 154.00     14.686    8.317 1.167 
 154.20     14.733    8.942 1.168 
 154.40     15.254    9.392 1.183 
 154.60     16.213   10.081 1.210 
 154.80     17.146   11.772 1.234 
 155.00     16.951   13.790 1.229 
 155.20     15.903   13.633 1.201 
 155.40     14.735   11.826 1.168 
 155.60     13.381    9.953 1.126 
 155.80     11.898    8.437 1.075 
 156.00     11.576    7.566 1.064 
 156.20     12.237    7.091 1.088 
 156.40     13.194    6.388 1.120 
 156.60     14.405    5.597 1.159 
 156.80     14.876    5.190 1.172 
 157.00     14.575    5.537 1.164 
 157.20     14.442    6.724 1.160 
 157.40     14.115    8.400 1.150 
 157.60     13.435    9.420 1.128 
 157.80     13.542    9.872 1.132 
 158.00     13.835    9.964 1.141 
 158.20     13.284    9.432 1.123 
 158.40     12.354    8.373 1.092 
 158.60     11.972    7.204 1.078 
 158.80     12.478    6.424 1.096 
 159.00     13.488    6.148 1.130 
 159.20     13.689    6.274 1.136 
 159.40     13.085    6.427 1.117 
 159.60     12.685    6.488 1.103 
 159.80     12.704    6.598 1.104 
 160.00     12.524    6.752 1.098 
 160.20     12.076    6.854 1.082 
 160.40     11.660    6.891 1.067 
 160.60     11.544    6.867 1.062 
 160.80     11.649    6.861 1.066 
 161.00     11.721    6.968 1.069 
 161.20     12.006    7.179 1.079 
 161.40     12.410    7.330 1.094 
 161.60     12.665    7.154 1.103 
 161.80     12.870    6.802 1.110 
 162.00     13.134    6.557 1.118 
 162.20     13.715    6.604 1.137 
 162.40     14.390    6.912 1.158 
 162.60     14.448    7.283 1.160 
 162.80     13.785    7.535 1.139 
 163.00     13.645    7.676 1.135 
 163.20     14.408    7.578 1.159 
 163.40     14.335    7.095 1.156 
 163.60     13.167    6.527 1.119 
 163.80     12.999    6.283 1.114 
 164.00     14.421    6.464 1.159 
 164.20     15.245    6.787 1.183 
 164.40     14.285    6.965 1.155 
 164.60     12.889    6.919 1.110 
 164.80     12.815    6.909 1.108 
 165.00     13.475    7.028 1.130 
 165.20     13.846    6.981 1.141 
 165.40     14.052    6.774 1.148 
 165.60     16.298    6.692 1.212 
 165.80     17.981    6.801 1.255 
 166.00     18.512    6.998 1.267 
 166.20     17.348    7.332 1.239 
 166.40     14.863    7.632 1.172 
 166.60     12.223    7.830 1.087 
 166.80     11.146    8.382 1.047 
 167.00     10.785    9.658 1.033 
 167.20     10.415   11.392 1.018 
 167.40     10.170   12.663 1.007 
 167.60     10.056   12.696 1.002 
 167.80      9.950   10.154 0.998 
 168.00      9.617    6.939 0.983 
 168.20      9.448    5.304 0.975 
 168.40      9.907    5.250 0.996 
 168.60     10.618    5.873 1.026 
 168.80     11.142    6.367 1.047 
 169.00     11.232    6.778 1.050 
 169.20     11.359    7.210 1.055 
 169.40     11.370    7.630 1.056 
 169.60     11.266    7.892 1.052 
 169.80     11.487    8.243 1.060 
 170.00     11.700    9.035 1.068 
 170.20     11.731    9.949 1.069 
 170.40     11.701   10.649 1.068 
 170.60     11.852   10.626 1.074 
 170.80     11.687    8.927 1.068 
 171.00     13.256    7.150 1.122 
 171.20     16.252    6.333 1.211 
 171.40     19.144    6.037 1.282 
 171.60     18.540    5.982 1.268 
 171.80     14.229    6.164 1.153 
 172.00     12.759    6.798 1.106 
 172.20     15.245    8.394 1.183 
 172.40     20.354   11.026 1.309 
 172.60     19.486   12.484 1.290 
 172.80     13.441   10.723 1.128 
 173.00      8.993    8.827 0.954 
 173.20      7.872    8.200 0.896 
 173.40      9.437    8.258 0.975 
 173.60     12.704    8.284 1.104 
 173.80     14.427    8.254 1.159 
 174.00     13.437    8.436 1.128 
 174.20     13.920    8.789 1.144 
 174.40     17.869    9.118 1.252 
 174.60     21.554    9.405 1.334 
 174.80     23.225    9.965 1.366 
 175.00     24.169    9.809 1.383 
 175.20     25.059    8.457 1.399 
 175.40     26.066    6.780 1.416 
 175.60     27.056    5.468 1.432 
 175.80     23.738    4.495 1.375 
 176.00     15.715    3.838 1.196 
 176.20     10.292    3.342 1.012 
 176.40      9.085    2.862 0.958 
 176.60      9.766    2.525 0.990 
 176.80     10.880    2.384 1.037 
 177.00     11.831    2.348 1.073 
 177.20     12.219    2.376 1.087 
 177.40     12.693    2.556 1.104 
 177.60     15.286    3.099 1.184 
 177.80     24.132    4.168 1.383 
 178.00     35.608    5.423 1.552 
 178.20     30.571    5.481 1.485 
 178.40     15.191    4.851 1.182 
 178.60      9.854    4.596 0.994 
 178.80     11.916    4.802 1.076 
 179.00     21.175    5.048 1.326 
 179.20     35.195    4.859 1.546 
 179.40     34.800    4.098 1.542 
 179.60     19.070    3.263 1.280 
 179.80     10.760    2.738 1.032 
 180.00      9.240    2.603 0.966 
 180.20     10.265    2.768 1.011 
 180.40     11.120    2.988 1.046 
 180.60     10.553    3.026 1.023 
 180.80      9.663    2.928 0.985 
 181.00      9.998    3.061 1.000 
 181.20     13.076    3.718 1.116 
 181.40     23.071    4.855 1.363 
 181.60     35.719    5.703 1.553 
 181.80     29.185    5.625 1.465 
 182.00     15.202    5.234 1.182 
 182.20      9.136    5.087 0.961 
 182.40      8.003    5.147 0.903 
 182.60      7.831    5.257 0.894 
 182.80      8.959    5.595 0.952 
 183.00     14.436    5.918 1.159 
 183.20     25.448    5.643 1.406 
 183.40     31.344    4.851 1.496 
 183.60     21.604    4.163 1.335 
 183.80     12.550    3.589 1.099 
 184.00      8.218    2.949 0.915 
 184.20      6.846    2.512 0.835 
 184.40      6.668    2.478 0.824 
 184.60      8.458    3.037 0.927 
 184.80     13.594    4.368 1.133 
 185.00     23.365    6.205 1.369 
 185.20     34.158    7.221 1.533 
 185.40     39.453    7.184 1.596 
 185.60     38.021    6.651 1.580 
 185.80     34.537    6.088 1.538 
 186.00     25.698    5.201 1.410 
 186.20     14.400    4.131 1.158 
 186.40      7.461    3.392 0.873 
 186.60      6.073    3.300 0.783 
 186.80      8.653    3.968 0.937 
 187.00     16.125    5.448 1.208 
 187.20     25.337    7.047 1.404 
 187.40     26.043    7.700 1.416 
 187.60     19.148    7.136 1.282 
 187.80     11.048    6.010 1.043 
 188.00      6.777    5.386 0.831 
 188.20      7.196    5.693 0.857 
 188.40     11.230    6.776 1.050 
 188.60     16.088    8.096 1.206 
 188.80     16.157    9.206 1.208 
 189.00     16.418   10.032 1.215 
 189.20     19.046   10.521 1.280 
 189.40     23.669   10.370 1.374 
 189.60     27.229   10.140 1.435 
 189.80     27.010   10.350 1.432 
 190.00     24.039   10.997 1.381 
 190.20     22.904   10.912 1.360 
 190.40     22.188    9.216 1.346 
 190.60     15.484    7.006 1.190 
 190.80      9.306    5.677 0.969 
 191.00      6.566    5.323 0.817 
 191.20      6.445    5.886 0.809 
 191.40      8.658    7.684 0.937 
 191.60     14.598   11.713 1.164 
 191.80     22.371   17.858 1.350 
 192.00     23.160   14.050 1.365 
