~Version information
  VERS.                            1.20: CWLS LAS  -  VERSION 1.20
  WRAP.                              NO: One line per depth step
~Well information
# MNEM.UNIT
# ====.=========== ====================:===================
  STRT.M                         146.40: First depth in file
  STOP.M                         410.40: Last depth in file
  STEP.M                           0.20: Depth increment
  NULL.                           -9999: Null values
  WELL.                            WELL: 1475       
  UWI .                  UNIQUE WELL ID: 1475 SHKA                
  FLD .                           FIELD: Шкаповская-ЭКС                   
  LOC .                        LOCATION:
  CNTY.                          COUNTY:
  STAT.                           STATE: Башкортостан
  CTRY.                         COUNTRY: Россия
  SRVC.                 SERVICE COMPANY: ГИРС ЦОИ                         
  DATE.                        LOG DATE: 10.06.2004
  API .                      API NUMBER:
~Parameter information block
# MNEM.UNIT
# ====.================================:===================
  ДТВР.               20.02.2004 00:00 : Дата и время замера кривой
  ДТИС.                     20.02.2004 : Дата окончания исследований
  СПМС.                цифр.ан/при рег : Способ получ цифрового массива
  ОЦФР.                                : Устройство оцифровки
  ПРХЖ.                 открытый ствол : Условия прохождения прибора
  ТПЖК.                           ГЛИН : Тип промывочной жидкости для кривой
  ПЛПЖ.ГСМ3                        1.2 : Плотность промывочной жидкости
  РС  .ОММ                       0.075 : Сопротивление промывочной жидкости
  ДНОМ.ММ                          295 : Номинальный диаметр скважины
  ТКРВ.                            ИСХ : Тип кривой по способу преобразования
  СОКР.                  версия БашГИС : Способ обработки кривой параметра
~Other information
  Кривая ИК искажена влиянием низкого сопротивления промыв.ж-ти и большого диаметра скважины. 
# ------------------------- REMARKS  AREA ------------------
~Curve information
# MNEM.UNIT
# ====.================================:===================
  DEPT .M                              : Depth curve
  БК   .ОММ                            : БК
#  ТАПП.                     К1А-723-М : Тип аппаратуры                                                                        
#  НАПП.                             5 : Номер аппаратуры (прибора) (заводской)                                                
  ИКП  .ОММ                            : ИКП
#  ТАПП.                     К1А-723-М : Тип аппаратуры                                                                        
#  НАПП.                             5 : Номер аппаратуры (прибора)                                                            
#  ЗОНД.                           3И1 : Типоразмер зонда                                                                      
  БКЛ  .БР                             : БКЛ
~ASCII Log Data
# ...
 238.00     11.471   96.000 1.060 
 238.20     11.881   96.000 1.075 
 238.40     10.596   17.912 1.025 
 238.60      9.989    5.120 1.000 
 238.80     10.426    3.937 1.018 
 239.00     12.438    5.439 1.095 
 239.20     13.291    8.056 1.124 
 239.40     12.555    7.757 1.099 
 239.60     12.191    6.089 1.086 
 239.80     12.318    5.754 1.091 
 240.00     13.051    5.986 1.116 
 240.20     14.244    6.069 1.154 
 240.40     14.976    5.885 1.175 
 240.60     12.804    5.346 1.107 
 240.80      8.730    4.743 0.941 
 241.00      5.479    4.288 0.739 
 241.20      3.851    4.121 0.586 
 241.40      3.361    4.429 0.527 
 241.60      3.582    5.378 0.554 
 241.80      4.834    5.879 0.684 
 242.00      7.451    5.313 0.872 
 242.20     10.792    5.299 1.033 
 242.40     12.860    6.302 1.109 
 242.60     13.699    7.563 1.137 
 242.80     15.247    8.070 1.183 
 243.00     15.408    7.964 1.188 
 243.20     13.849    7.046 1.141 
 243.40     13.311    6.377 1.124 
 243.60     13.686    6.670 1.136 
 243.80     14.275    7.662 1.155 
 244.00     14.215    8.274 1.153 
 244.20     12.037    7.559 1.081 
 244.40      9.821    6.146 0.992 
 244.60      9.521    4.974 0.979 
 244.80      9.440    4.154 0.975 
 245.00      9.116    3.471 0.960 
 245.20      7.417    2.931 0.870 
 245.40      5.863    2.549 0.768 
 245.60      4.988    2.316 0.698 
 245.80      4.974    2.221 0.697 
 246.00      5.307    2.291 0.725 
 246.20      5.742    2.416 0.759 
 246.40      6.280    2.437 0.798 
 246.60      6.563    2.332 0.817 
 246.80      6.160    2.190 0.790 
 247.00      5.993    2.116 0.778 
 247.20      6.315    2.092 0.800 
 247.40      6.329    2.018 0.801 
 247.60      5.759    1.905 0.760 
 247.80      5.695    1.863 0.755 
 248.00      6.127    1.924 0.787 
 248.20      6.776    2.065 0.831 
 248.40      7.839    2.189 0.894 
 248.60      8.842    2.155 0.947 
 248.80      7.543    1.917 0.878 
 249.00      5.884    1.653 0.770 
 249.20      5.043    1.492 0.703 
 249.40      5.043    1.419 0.703 
 249.60      5.235    1.422 0.719 
 249.80      5.243    1.467 0.720 
 250.00      4.862    1.544 0.687 
 250.20      4.672    1.700 0.670 
 250.40      4.640    1.992 0.667 
 250.60      4.807    2.507 0.682 
 250.80      6.018    3.224 0.779 
 251.00      9.023    3.648 0.955 
 251.20     13.834    3.587 1.141 
 251.40     17.521    3.529 1.244 
 251.60     17.672    3.731 1.247 
 251.80     12.319    3.817 1.091 
 252.00      6.652    3.679 0.823 
 252.20      4.062    3.506 0.609 
 252.40      3.555    3.552 0.551 
 252.60      4.076    4.041 0.610 
 252.80      5.385    5.172 0.731 
 253.00      8.369    6.462 0.923 
 253.20     11.408    7.656 1.057 
 253.40     12.361    9.515 1.092 
 253.60     11.320   10.592 1.054 
 253.80     10.067    9.136 1.003 
 254.00      9.810    7.777 0.992 
 254.20      9.418    7.126 0.974 
 254.40      9.129    6.466 0.960 
 254.60      9.128    6.506 0.960 
 254.80     10.015    7.115 1.001 
 255.00     10.663    7.275 1.028 
 255.20     10.343    6.792 1.015 
 255.40     10.222    6.301 1.010 
 255.60     11.186    6.331 1.049 
 255.80     10.934    6.425 1.039 
 256.00      9.590    6.226 0.982 
 256.20      9.807    5.972 0.992 
 256.40     10.332    5.560 1.014 
 256.60      7.976    5.215 0.902 
 256.80      5.808    5.058 0.764 
 257.00      5.026    4.911 0.701 
 257.20      4.850    4.827 0.686 
 257.40      5.147    5.110 0.712 
 257.60      5.981    5.737 0.777 
 257.80      7.374    6.419 0.868 
 258.00      8.655    7.022 0.937 
 258.20      9.572    7.248 0.981 
 258.40     10.507    6.718 1.021 
 258.60     11.833    5.429 1.073 
 258.80     13.397    4.264 1.127 
 259.00     13.634    3.622 1.135 
 259.20     10.881    3.236 1.037 
 259.40      7.254    2.916 0.861 
 259.60      5.415    2.632 0.734 
 259.80      4.862    2.406 0.687 
 260.00      4.616    2.259 0.664 
 260.20      5.029    2.215 0.701 
 260.40      5.772    2.179 0.761 
 260.60      5.787    2.120 0.762 
 260.80      5.699    2.134 0.756 
 261.00      5.883    2.279 0.770 
 261.20      5.907    2.464 0.771 
 261.40      5.700    2.603 0.756 
 261.60      5.671    2.766 0.754 
 261.80      5.779    3.004 0.762 
 262.00      6.597    3.354 0.819 
 262.20      8.309    3.819 0.920 
 262.40     10.511    4.196 1.022 
 262.60     10.907    4.332 1.038 
 262.80      9.763    4.384 0.990 
 263.00      9.445    4.412 0.975 
 263.20      9.557    4.257 0.980 
 263.40      8.977    3.986 0.953 
 263.60      8.865    3.857 0.948 
 263.80     10.414    3.960 1.018 
 264.00     12.261    4.158 1.089 
 264.20     10.951    4.041 1.039 
 264.40      6.498    3.636 0.813 
 264.60      3.976    3.601 0.599 
 264.80      3.628    4.514 0.560 
 265.00      5.407    7.436 0.733 
 265.20      8.402   12.052 0.924 
 265.40      9.670   10.453 0.985 
 265.60      8.846    6.992 0.947 
 265.80      8.525    5.571 0.931 
 266.00      9.023    5.280 0.955 
 266.20      9.810    5.513 0.992 
 266.40     11.238    6.185 1.051 
 266.60     11.541    6.896 1.062 
 266.80     11.321    7.140 1.054 
 267.00     11.562    7.323 1.063 
 267.20     10.482    7.647 1.020 
 267.40      9.471    7.803 0.976 
 267.60     10.104    7.946 1.005 
 267.80     10.073    7.955 1.003 
 268.00      8.484    7.496 0.929 
 268.20      6.852    7.081 0.836 
 268.40      6.362    7.236 0.804 
 268.60      6.974    7.827 0.844 
 268.80      8.570    7.781 0.933 
 269.00      8.875    7.132 0.948 
 269.20      8.221    6.808 0.915 
 269.40      7.959    6.840 0.901 
 269.60      8.691    6.889 0.939 
 269.80      8.678    6.918 0.938 
 270.00      9.860    7.427 0.994 
 270.20     11.207    8.226 1.049 
 270.40     11.136    8.193 1.047 
 270.60      9.802    7.580 0.991 
 270.80      9.359    7.263 0.971 
 271.00      9.215    7.572 0.964 
 271.20      9.161    8.083 0.962 
 271.40      9.067    8.118 0.957 
 271.60      9.043    7.504 0.956 
 271.80      9.071    6.876 0.958 
 272.00      9.116    6.655 0.960 
 272.20      9.062    6.939 0.957 
 272.40      8.816    7.505 0.945 
 272.60      8.615    8.059 0.935 
 272.80      8.737    8.312 0.941 
 273.00      9.050    8.301 0.957 
 273.20      8.925    8.250 0.951 
 273.40      8.548    8.319 0.932 
 273.60      8.498    8.447 0.929 
 273.80      8.708    8.653 0.940 
 274.00      8.859    9.352 0.947 
 274.20      8.478    9.143 0.928 
 274.40      8.103    8.055 0.909 
 274.60      8.061    8.130 0.906 
 274.80      8.917   10.799 0.950 
 275.00      9.403   21.168 0.973 
 275.20      9.402   18.995 0.973 
 275.40      8.596    8.298 0.934 
 275.60      8.312    5.463 0.920 
 275.80      9.242    5.930 0.966 
 276.00      9.466    6.830 0.976 
 276.20      8.275    6.862 0.918 
 276.40      6.777    6.486 0.831 
 276.60      6.284    6.098 0.798 
 276.80      6.890    5.959 0.838 
 277.00      9.090    6.231 0.959 
 277.20     10.758    6.705 1.032 
 277.40     11.220    7.415 1.050 
 277.60     10.855    8.430 1.036 
 277.80     10.641    9.185 1.027 
 278.00      9.348    9.249 0.971 
 278.20      8.997    9.182 0.954 
 278.40      8.838    8.963 0.946 
 278.60      8.288    8.174 0.918 
 278.80      7.591    7.254 0.880 
 279.00      7.503    6.685 0.875 
 279.20      7.862    6.653 0.896 
 279.40      8.680    7.478 0.939 
 279.60      9.197    9.565 0.964 
 279.80      9.385   13.852 0.972 
 280.00      9.217   21.005 0.965 
 280.20      8.714   26.019 0.940 
 280.40      8.019   28.375 0.904 
 280.60      8.268   39.388 0.917 
 280.80      8.246   17.231 0.916 
 281.00      7.564    6.257 0.879 
 281.20      7.430    3.861 0.871 
 281.40      7.698    3.798 0.886 
 281.60      7.061    4.659 0.849 
 281.80      6.566    5.776 0.817 
 282.00      8.006    6.551 0.903 
 282.20     10.367    6.765 1.016 
 282.40     11.113    6.869 1.046 
 282.60     10.188    7.328 1.008 
 282.80      9.353    8.510 0.971 
 283.00      9.084    9.394 0.958 
 283.20      8.994    8.484 0.954 
 283.40      8.508    7.145 0.930 
 283.60      8.309    6.684 0.920 
