~Version information
  VERS.                            1.20: CWLS LAS  -  VERSION 1.20
  WRAP.                              NO: One line per depth step
~Well information
# MNEM.UNIT
# ====.=========== ====================:===================
  STRT.M                         146.40: First depth in file
  STOP.M                         410.40: Last depth in file
  STEP.M                           0.20: Depth increment
  NULL.                           -9999: Null values
  WELL.                            WELL: 1475       
  UWI .                  UNIQUE WELL ID: 1475 SHKA                
  FLD .                           FIELD: Шкаповская-ЭКС                   
  LOC .                        LOCATION:
  CNTY.                          COUNTY:
  STAT.                           STATE: Башкортостан
  CTRY.                         COUNTRY: Россия
  SRVC.                 SERVICE COMPANY: ГИРС ЦОИ                         
  DATE.                        LOG DATE: 10.06.2004
  API .                      API NUMBER:
~Parameter information block
# MNEM.UNIT
# ====.================================:===================
  ДТВР.               20.02.2004 00:00 : Дата и время замера кривой
  ДТИС.                     20.02.2004 : Дата окончания исследований
  СПМС.                цифр.ан/при рег : Способ получ цифрового массива
  ОЦФР.                                : Устройство оцифровки
  ПРХЖ.                 открытый ствол : Условия прохождения прибора
  ТПЖК.                           ГЛИН : Тип промывочной жидкости для кривой
  ПЛПЖ.ГСМ3                        1.2 : Плотность промывочной жидкости
  РС  .ОММ                       0.075 : Сопротивление промывочной жидкости
  ДНОМ.ММ                          295 : Номинальный диаметр скважины
  ТКРВ.                            ИСХ : Тип кривой по способу преобразования
  СОКР.                  версия БашГИС : Способ обработки кривой параметра
~Other information
  Кривая ИК искажена влиянием низкого сопротивления промыв.ж-ти и большого диаметра скважины. 
# ------------------------- REMARKS  AREA ------------------
~Curve information
# MNEM.UNIT
# ====.================================:===================
  DEPT .M                              : Depth curve
  БК   .ОММ                            : БК
#  ТАПП.                     К1А-723-М : Тип аппаратуры                                                                        
#  НАПП.                             5 : Номер аппаратуры (прибора) (заводской)                                                
  ИКП  .ОММ                            : ИКП
#  ТАПП.                     К1А-723-М : Тип аппаратуры                                                                        
#  НАПП.                             5 : Номер аппаратуры (прибора)                                                            
#  ЗОНД.                           3И1 : Типоразмер зонда                                                                      
  БКЛ  .БР                             : БКЛ
~ASCII Log Data
# ...
 375.40    269.335   30.964 2.430 
 375.60    266.480   24.478 2.426 
 375.80    268.787   23.291 2.429 
 376.00    273.885   25.807 2.438 
 376.20    285.009   30.604 2.455 
 376.40    289.869   38.470 2.462 
 376.60    291.439   45.145 2.465 
 376.80    286.579   56.574 2.457 
 377.00    287.557   90.128 2.459 
 377.20    287.675   96.000 2.459 
 377.40    278.895   96.000 2.445 
 377.60    262.878   96.000 2.420 
 377.80    243.159   64.874 2.386 
 378.00    192.252   30.368 2.284 
 378.20    160.116   22.661 2.204 
 378.40    160.825   22.301 2.206 
 378.60    195.843   25.956 2.292 
 378.80    246.603   29.274 2.392 
 379.00    293.632   30.162 2.468 
 379.20    329.350   28.783 2.518 
 379.40    338.011   26.644 2.529 
 379.60    334.868   27.205 2.525 
 379.80    332.753   30.586 2.522 
 380.00    339.570   33.483 2.531 
 380.20    351.044   30.934 2.545 
 380.40    353.185   29.855 2.548 
 380.60    341.952   30.518 2.534 
 380.80    322.869   31.259 2.509 
 381.00    311.594   31.079 2.494 
 381.20    307.784   31.311 2.488 
 381.40    310.659   36.214 2.492 
 381.60    314.070   40.062 2.497 
 381.80    312.590   41.810 2.495 
 382.00    306.707   42.833 2.487 
 382.20    307.205   49.263 2.487 
 382.40    308.957   67.347 2.490 
 382.60    311.304   73.285 2.493 
 382.80    312.570   80.961 2.495 
 383.00    301.798   96.000 2.480 
 383.20    271.921   96.000 2.434 
 383.40    215.005   57.868 2.332 
 383.60    146.415   46.024 2.166 
 383.80    134.687   88.603 2.129 
 384.00    178.398   94.313 2.251 
 384.20    250.294   45.447 2.398 
 384.40    301.335   30.752 2.479 
 384.60    333.811   30.253 2.524 
 384.80    338.440   30.626 2.529 
 385.00    325.551   28.623 2.513 
 385.20    314.515   28.294 2.498 
 385.40    309.143   32.279 2.490 
 385.60    305.856   39.746 2.486 
 385.80    302.107   54.423 2.480 
 386.00    293.890   90.451 2.468 
 386.20    286.230   96.000 2.457 
 386.40    282.099   96.000 2.450 
 386.60    281.675   96.000 2.450 
 386.80    283.301   96.000 2.452 
 387.00    285.121   96.000 2.455 
 387.20    284.672   96.000 2.454 
 387.40    279.407   86.439 2.446 
 387.60    267.194   64.888 2.427 
 387.80    246.259   45.248 2.391 
 388.00    212.451   37.624 2.327 
 388.20    191.123   35.007 2.281 
 388.40    196.585   41.684 2.294 
 388.60    229.054   60.709 2.360 
 388.80    260.945   82.500 2.417 
 389.00    287.868   93.728 2.459 
 389.20    301.422   96.000 2.479 
 389.40    302.504   96.000 2.481 
 389.60    298.506   96.000 2.475 
 389.80    299.963   96.000 2.477 
 390.00    297.931   96.000 2.474 
 390.20    288.278   96.000 2.460 
 390.40    283.873   93.788 2.453 
 390.60    287.475   82.406 2.459 
 390.80    279.468   76.599 2.446 
 391.00    267.443   72.800 2.427 
 391.20    266.830   75.763 2.426 
 391.40    266.334   86.476 2.425 
 391.60    264.262   96.000 2.422 
 391.80    265.001   96.000 2.423 
 392.00    267.306   96.000 2.427 
 392.20    269.682   94.987 2.431 
 392.40    268.825   95.053 2.429 
 392.60    258.338   82.496 2.412 
 392.80    232.280   57.954 2.366 
 393.00    186.221   47.310 2.270 
 393.20    179.086   51.396 2.253 
 393.40    206.095   54.527 2.314 
 393.60    255.138   48.081 2.407 
 393.80    291.299   45.625 2.464 
 394.00    320.500   45.383 2.506 
 394.20    333.837   43.256 2.524 
 394.40    327.364   37.873 2.515 
 394.60    307.156   31.428 2.487 
 394.80    300.970   29.098 2.479 
 395.00    295.265   27.883 2.470 
 395.20    295.106   27.899 2.470 
 395.40    296.581   30.977 2.472 
 395.60    295.007   45.991 2.470 
 395.80    293.874   96.000 2.468 
 396.00    292.856   96.000 2.467 
 396.20    291.879   96.000 2.465 
 396.40    289.686   78.349 2.462 
 396.60    290.555   39.723 2.463 
 396.80    294.273   28.386 2.469 
 397.00    298.342   26.365 2.475 
 397.20    298.783   28.125 2.475 
 397.40    299.098   31.840 2.476 
 397.60    299.920   40.203 2.477 
 397.80    301.704   44.949 2.480 
 398.00    301.194   45.626 2.479 
 398.20    298.849   51.756 2.475 
 398.40    303.262   75.884 2.482 
 398.60    311.531   96.000 2.494 
 398.80    316.168   96.000 2.500 
 399.00    320.780   87.766 2.506 
 399.20    323.052   63.088 2.509 
 399.40    324.224   43.921 2.511 
 399.60    324.232   36.402 2.511 
 399.80    321.853   31.322 2.508 
 400.00    317.032   31.914 2.501 
 400.20    310.626   37.538 2.492 
 400.40    309.204   43.719 2.490 
 400.60    311.318   44.140 2.493 
 400.80    314.079   39.673 2.497 
 401.00    319.665   37.945 2.505 
 401.20    324.514   46.081 2.511 
 401.40    326.506   84.675 2.514 
 401.60    325.560   96.000 2.513 
 401.80    320.928   96.000 2.506 
 402.00    319.328   96.000 2.504 
 402.20    318.470   96.000 2.503 
 402.40    319.168   96.000 2.504 
 402.60    329.230   96.000 2.517 
 402.80    344.208   96.000 2.537 
 403.00    358.050   96.000 2.554 
 403.20    358.085   96.000 2.554 
 403.40    328.926   96.000 2.517 
 403.60    248.550   96.000 2.395 
 403.80    201.065   96.000 2.303 
 404.00    215.021   96.000 2.332 
 404.20    287.082   96.000 2.458 
 404.40    360.674   96.000 2.557 
 404.60    423.717   96.000 2.627 
 404.80    500.792   96.000 2.700 
 405.00    499.090   43.304 2.698 
 405.20    453.802   32.203 2.657 
 405.40    426.468   31.651 2.630 
 405.60    419.303   29.810 2.623 
 405.80    415.679   28.674 2.619 
 406.00    415.343   32.792 2.618 
 406.20    412.057   41.268 2.615 
 406.40    412.384   47.359 2.615 
 406.60    417.326   65.837 2.620 
 406.80    426.280   82.692 2.630 
 407.00    434.421   76.390 2.638 
 407.20    446.325   87.414 2.650 
 407.40    451.387   96.000 2.655 
 407.60    449.119   96.000 2.652 
 407.80    417.444   96.000 2.621 
 408.00    372.380   96.000 2.571 
 408.20    291.916   96.000 2.465 
 408.40    247.855   96.000 2.394 
 408.60    260.492   51.511 2.416 
 408.80    326.429   26.253 2.514 
 409.00      -9999   17.553 -9999 
 409.20      -9999   17.097 -9999 
 409.40      -9999   24.173 -9999 
 409.60      -9999   42.179 -9999 
 409.80      -9999   48.205 -9999 
 410.00      -9999   46.553 -9999 
 410.20      -9999   50.245 -9999 
 410.40      -9999   45.379 -9999 
