~Version information
  VERS.                            1.20: CWLS LAS  -  VERSION 1.20
  WRAP.                              NO: One line per depth step
~Well information
# MNEM.UNIT
# ====.=========== ====================:===================
  STRT.M                         146.40: First depth in file
  STOP.M                         410.40: Last depth in file
  STEP.M                           0.20: Depth increment
  NULL.                           -9999: Null values
  WELL.                            WELL: 1475       
  UWI .                  UNIQUE WELL ID: 1475 SHKA                
  FLD .                           FIELD: Шкаповская-ЭКС                   
  LOC .                        LOCATION:
  CNTY.                          COUNTY:
  STAT.                           STATE: Башкортостан
  CTRY.                         COUNTRY: Россия
  SRVC.                 SERVICE COMPANY: ГИРС ЦОИ                         
  DATE.                        LOG DATE: 10.06.2004
  API .                      API NUMBER:
~Parameter information block
# MNEM.UNIT
# ====.================================:===================
  ДТВР.               20.02.2004 00:00 : Дата и время замера кривой
  ДТИС.                     20.02.2004 : Дата окончания исследований
  СПМС.                цифр.ан/при рег : Способ получ цифрового массива
  ОЦФР.                                : Устройство оцифровки
  ПРХЖ.                 открытый ствол : Условия прохождения прибора
  ТПЖК.                           ГЛИН : Тип промывочной жидкости для кривой
  ПЛПЖ.ГСМ3                        1.2 : Плотность промывочной жидкости
  РС  .ОММ                       0.075 : Сопротивление промывочной жидкости
  ДНОМ.ММ                          295 : Номинальный диаметр скважины
  ТКРВ.                            ИСХ : Тип кривой по способу преобразования
  СОКР.                  версия БашГИС : Способ обработки кривой параметра
~Other information
  Кривая ИК искажена влиянием низкого сопротивления промыв.ж-ти и большого диаметра скважины. 
# ------------------------- REMARKS  AREA ------------------
~Curve information
# MNEM.UNIT
# ====.================================:===================
  DEPT .M                              : Depth curve
  БК   .ОММ                            : БК
#  ТАПП.                     К1А-723-М : Тип аппаратуры                                                                        
#  НАПП.                             5 : Номер аппаратуры (прибора) (заводской)                                                
  ИКП  .ОММ                            : ИКП
#  ТАПП.                     К1А-723-М : Тип аппаратуры                                                                        
#  НАПП.                             5 : Номер аппаратуры (прибора)                                                            
#  ЗОНД.                           3И1 : Типоразмер зонда                                                                      
  БКЛ  .БР                             : БКЛ
~ASCII Log Data
# ...
 283.80      8.589    7.019 0.934 
 284.00      8.692    7.779 0.939 
 284.20      8.430    8.215 0.926 
 284.40      8.230    8.301 0.915 
 284.60      8.309    8.676 0.920 
 284.80      8.422    9.125 0.925 
 285.00      8.106    8.780 0.909 
 285.20      7.949    8.918 0.900 
 285.40      8.308   10.150 0.919 
 285.60      8.244   11.646 0.916 
 285.80      7.759   11.612 0.890 
 286.00      7.553   10.407 0.878 
 286.20      7.124    8.748 0.853 
 286.40      7.132    7.280 0.853 
 286.60      7.620    6.585 0.882 
 286.80      8.474    6.500 0.928 
 287.00      9.159    6.931 0.962 
 287.20      9.633    8.162 0.984 
 287.40      9.573    9.894 0.981 
 287.60      8.714   11.095 0.940 
 287.80      8.250   10.210 0.916 
 288.00      7.933    9.037 0.899 
 288.20      7.831    8.918 0.894 
 288.40      7.721    8.805 0.888 
 288.60      7.410    7.332 0.870 
 288.80      7.953    6.120 0.901 
 289.00      8.958    6.722 0.952 
 289.20      9.796    9.279 0.991 
 289.40     11.089   16.027 1.045 
 289.60     11.817   73.629 1.072 
 289.80     10.871   96.000 1.036 
 290.00      8.627   23.083 0.936 
 290.20      7.777   10.851 0.891 
 290.40      7.594    8.757 0.880 
 290.60      7.185    7.703 0.856 
 290.80      6.439    5.471 0.809 
 291.00      6.603    4.224 0.820 
 291.20      8.529    4.571 0.931 
 291.40     12.036    6.784 1.080 
 291.60     15.313   11.390 1.185 
 291.80     16.481   15.279 1.217 
 292.00     13.546   12.945 1.132 
 292.20     11.036    9.462 1.043 
 292.40     10.765    7.917 1.032 
 292.60     11.744    7.925 1.070 
 292.80     14.445    9.439 1.160 
 293.00     17.415   11.867 1.241 
 293.20     18.422   12.695 1.265 
 293.40     19.511   12.656 1.290 
 293.60     23.628   13.844 1.373 
 293.80     25.494   15.063 1.406 
 294.00     20.926   15.210 1.321 
 294.20     17.129   15.373 1.234 
 294.40     16.932   16.350 1.229 
 294.60     17.079   16.852 1.232 
 294.80     16.924   15.421 1.228 
 295.00     15.364   12.703 1.187 
 295.20     13.416   10.102 1.128 
 295.40     12.312    8.648 1.090 
 295.60     11.875    8.451 1.075 
 295.80     11.733    8.994 1.069 
 296.00     12.154    9.735 1.085 
 296.20     12.567   10.246 1.099 
 296.40     12.465   10.856 1.096 
 296.60     12.604   11.296 1.101 
 296.80     12.942   11.001 1.112 
 297.00     12.363   10.279 1.092 
 297.20     12.278    9.681 1.089 
 297.40     11.880    9.371 1.075 
 297.60     11.903    8.970 1.076 
 297.80     11.735    8.388 1.069 
 298.00     12.287    7.918 1.089 
 298.20     14.516    8.370 1.162 
 298.40     19.262   10.421 1.285 
 298.60     22.747   14.653 1.357 
 298.80     20.909   20.182 1.320 
 299.00     17.867   22.660 1.252 
 299.20     15.514   17.821 1.191 
 299.40     13.036   12.495 1.115 
 299.60     11.760    9.810 1.070 
 299.80     11.518    8.860 1.061 
 300.00     11.708    8.658 1.068 
 300.20     12.192    8.677 1.086 
 300.40     13.105    9.020 1.117 
 300.60     15.049    9.884 1.178 
 300.80     17.080   11.434 1.232 
 301.00     18.389   13.695 1.265 
 301.20     17.148   14.619 1.234 
 301.40     14.515   11.704 1.162 
 301.60     12.190    8.667 1.086 
 301.80     12.739    7.612 1.105 
 302.00     15.829    8.583 1.199 
 302.20     19.000   10.880 1.279 
 302.40     19.419   12.914 1.288 
 302.60     16.685   13.381 1.222 
 302.80     13.679   12.590 1.136 
 303.00     12.123   12.311 1.084 
 303.20     11.035   12.258 1.043 
 303.40     10.697   12.456 1.029 
 303.60     10.932   13.049 1.039 
 303.80     10.876   12.202 1.036 
 304.00     10.763   10.366 1.032 
 304.20     10.916   10.425 1.038 
 304.40     11.612   11.656 1.065 
 304.60     10.846   10.246 1.035 
 304.80     10.498    7.565 1.021 
 305.00     11.279    7.290 1.052 
 305.20     12.760    8.676 1.106 
 305.40     13.274    9.994 1.123 
 305.60     13.520   10.248 1.131 
 305.80     13.220   10.468 1.121 
 306.00     12.869   10.545 1.110 
 306.20     15.472   11.552 1.190 
 306.40     21.494   14.692 1.332 
 306.60     22.377   20.547 1.350 
 306.80     18.398   26.686 1.265 
 307.00     20.900   32.718 1.320 
 307.20     35.193   41.920 1.546 
 307.40     65.514   39.683 1.816 
 307.60    106.762   29.879 2.028 
 307.80    140.559   24.556 2.148 
 308.00    157.920   22.656 2.198 
 308.20    144.857   22.056 2.161 
 308.40    147.342   22.002 2.168 
 308.60    159.050   22.410 2.202 
 308.80    229.414   22.850 2.361 
 309.00    487.754   23.745 2.688 
 309.20   1117.612   26.001 3.048 
 309.40   1491.082   33.236 3.174 
 309.60   1167.418   49.263 3.067 
 309.80    876.736   84.161 2.943 
 310.00    889.426   96.000 2.949 
 310.20    952.794   96.000 2.979 
 310.40    909.100   96.000 2.959 
 310.60    732.692   96.000 2.865 
 310.80    680.937   45.668 2.833 
 311.00    955.285   32.715 2.980 
 311.20   1563.211   27.360 3.194 
 311.40   2050.553   20.800 3.312 
 311.60   1889.503   17.135 3.276 
 311.80   1212.139   18.634 3.084 
 312.00    651.246   26.615 2.814 
 312.20    545.219   43.452 2.737 
 312.40    856.300   73.541 2.933 
 312.60   1163.401   96.000 3.066 
 312.80    978.673   96.000 2.991 
 313.00    615.438   96.000 2.789 
 313.20    386.900   83.199 2.588 
 313.40    333.977   50.685 2.524 
 313.60    404.850   42.216 2.607 
 313.80    517.447   37.448 2.714 
 314.00    478.108   30.602 2.680 
 314.20    476.391   24.595 2.678 
 314.40    465.092   20.735 2.668 
 314.60    454.685   19.093 2.658 
 314.80    421.722   18.592 2.625 
 315.00    403.933   18.380 2.606 
 315.20    346.946   18.844 2.540 
 315.40    314.953   20.580 2.498 
 315.60    309.840   23.133 2.491 
 315.80    441.536   26.258 2.645 
 316.00    514.658   26.929 2.712 
 316.20    418.597   24.675 2.622 
 316.40    338.992   22.040 2.530 
 316.60    357.949   20.890 2.554 
 316.80    486.023   20.736 2.687 
 317.00    601.997   21.326 2.780 
 317.20    565.570   22.431 2.752 
 317.40    544.293   24.479 2.736 
 317.60    667.020   25.911 2.824 
 317.80    643.753   24.537 2.809 
 318.00    571.080   21.739 2.757 
 318.20    548.163   20.483 2.739 
 318.40    510.285   20.323 2.708 
 318.60    464.820   20.638 2.667 
 318.80    471.284   21.576 2.673 
 319.00    473.301   23.306 2.675 
 319.20    660.834   25.504 2.820 
 319.40   1405.597   26.093 3.148 
 319.60   3006.830   25.494 3.478 
 319.80   4114.178   25.298 3.614 
 320.00   4998.368   25.715 3.699 
 320.20   5630.806   27.161 3.751 
 320.40   6385.836   28.425 3.805 
 320.60   6960.698   28.404 3.843 
 320.80   8455.625   27.247 3.927 
 321.00   9020.992   25.556 3.955 
 321.20   9480.062   24.183 3.977 
 321.40   7645.945   24.585 3.883 
 321.60   6060.965   28.172 3.783 
 321.80   3575.134   35.096 3.553 
 322.00   1368.448   47.500 3.136 
 322.20    687.554   96.000 2.837 
 322.40   1389.446   96.000 3.143 
 322.60   3454.579   96.000 3.538 
 322.80   3689.607   96.000 3.567 
 323.00   1997.856   96.000 3.301 
 323.20    795.799   96.000 2.901 
 323.40    355.365   37.382 2.551 
 323.60    255.019   22.208 2.407 
 323.80    416.741   16.470 2.620 
 324.00   1879.288   15.502 3.274 
 324.20   5376.489   18.659 3.730 
 324.40   2819.010   23.685 3.450 
 324.60    527.685   27.335 2.722 
 324.80    315.498   30.179 2.499 
 325.00    542.796   38.031 2.735 
 325.20   1549.417   48.423 3.190 
 325.40   4523.250   63.412 3.655 
 325.60   7529.782   47.835 3.877 
 325.80   6127.818   34.426 3.787 
 326.00   1706.398   25.337 3.232 
 326.20    276.804   21.414 2.442 
 326.40    102.678   20.743 2.011 
 326.60     82.645   20.919 1.917 
 326.80    109.822   20.642 2.041 
 327.00    173.434   20.202 2.239 
 327.20    333.655   20.234 2.523 
 327.40    859.096   21.818 2.934 
 327.60   1852.798   26.585 3.268 
 327.80   2838.379   36.363 3.453 
 328.00   2590.727   53.286 3.413 
 328.20   1576.668   79.967 3.198 
 328.40    842.434   86.283 2.926 
 328.60    539.523   68.195 2.732 
 328.80    738.063   42.189 2.868 
 329.00   2958.043   30.995 3.471 
 329.20  10024.778   27.860 4.001 
 329.40   7590.973   27.596 3.880 
