~Version information
  VERS.                            1.20: CWLS LAS  -  VERSION 1.20
  WRAP.                              NO: One line per depth step
~Well information
# MNEM.UNIT
# ====.=========== ====================:===================
  STRT.M                          25.00: First depth in file
  STOP.M                         410.00: Last depth in file
  STEP.M                           0.20: Depth increment
  NULL.                           -9999: Null values
  WELL.                            WELL: 5ALS
  UWI .                  UNIQUE WELL ID: 5 ALS
  FLD .                           FIELD: SHkapovskaja-JEKS
  LOC .                        LOCATION:
  CNTY.                          COUNTY:
  STAT.                           STATE: Bashkortostan
  CTRY.                         COUNTRY: Rossija
  SRVC.                 SERVICE COMPANY: SHkapovskaja PGJE
  DATE.                        LOG DATE: 22.05.2006
  API .                      API NUMBER:
~Parameter information block
# MNEM.UNIT
# ====.================================:===================
  DTVR.               25.05.1960 00:00 : Data i vremja zamera krivoi'
  DTIS.                     25.05.1960 : Data okonchanija issledovanii'
  SPMS.                  ocifr.analog. : Sposob poluch cifrovogo massiva
  OCFR.                         skaner : Ustroi'stvo ocifrovki
  PRHJ.                 otkrytyi' stvol : Uslovija prohojdenija pribora
  DNOM.MM                          298 : Nominal'nyi' diametr skvajiny
  MSHGL.                            500 : Masshtab glubin karotajnoi' diagrammy
  TKRV.                            ISH : Tip krivoi' po sposobu preobrazovanija
#~Other information
# ------------------------- REMARKS  AREA ------------------
~Curve information
# MNEM.UNIT
# ====.================================:===================
 DEPT .M                              : Depth curve
 DS   .M                              : Kavernogramma
 PZ   .OMM                            : Potencial-zond
 PS   .MV                             : PS
~ASCII Log Data
  25.00  -9999     -9999  -9999 
  25.20  -9999     -9999  -9999 
  25.40 0.3332     -9999  -9999 
  25.60 0.3478     -9999  -9999 
  25.80 0.3617     -9999  -9999 
  26.00 0.3763     -9999  -9999 
  26.20 0.3427     -9999  -9999 
  26.40 0.3370     -9999  -9999 
  26.60 0.3414     -9999  -9999 
  26.80 0.3363     -9999  -9999 
  27.00 0.3465     -9999  -9999 
  27.20 0.3560     -9999  -9999 
  27.40 0.3535     -9999  -9999 
  27.60 0.3376     -9999  -9999 
  27.80 0.3262     -9999  -9999 
  28.00 0.3186     -9999  -9999 
  28.20 0.3122     -9999  -9999 
  28.40 0.3072     -9999  -9999 
  28.60 0.3046     -9999  -9999 
  28.80 0.3033     -9999  -9999 
  29.00 0.3021     -9999  -9999 
  29.20 0.3027     -9999  -9999 
  29.40 0.3033     -9999  -9999 
  29.60 0.3052     -9999  -9999 
  29.80 0.3059     -9999  -9999 
  30.00 0.3065     -9999  -9999 
  30.20 0.3052     -9999  -9999 
  30.40 0.3033     -9999  -9999 
  30.60 0.3014     -9999  -9999 
  30.80 0.2995     -9999  -9999 
  31.00 0.2989     -9999  -9999 
  31.20 0.2989     -9999  -9999 
  31.40 0.3002     -9999  -9999 
  31.60 0.3008     -9999  -9999 
  31.80 0.3021     -9999  -9999 
  32.00 0.3033     -9999  -9999 
  32.20 0.3033     -9999  -9999 
  32.40 0.3027     -9999  -9999 
  32.60 0.3014     -9999  -9999 
  32.80 0.3014     -9999  -9999 
  33.00 0.3027     -9999  -9999 
  33.20 0.3021     -9999  -9999 
  33.40 0.3002     -9999  -9999 
  33.60 0.2976     -9999  -9999 
  33.80 0.2957     -9999  -9999 
  34.00 0.2970     -9999  -9999 
  34.20 0.2983     -9999  -9999 
  34.40 0.2995     -9999  -9999 
  34.60 0.3008     -9999  -9999 
  34.80 0.3021     -9999  -9999 
  35.00 0.3021     -9999  -9999 
  35.20 0.3014     -9999  -9999 
  35.40 0.3014     -9999  -9999 
  35.60 0.3008     -9999  -9999 
  35.80 0.3002     -9999  -9999 
  36.00 0.3002     -9999  -9999 
  36.20 0.3002     -9999  -9999 
  36.40 0.2995     -9999  -9999 
  36.60 0.2995     -9999  -9999 
  36.80 0.2995     -9999  -9999 
  37.00 0.2995     -9999  -9999 
  37.20 0.3008     -9999  -9999 
  37.40 0.3021     -9999  -9999 
  37.60 0.3046     -9999  -9999 
  37.80 0.3072     -9999  -9999 
  38.00 0.3097     -9999  -9999 
  38.20 0.3065     -9999  -9999 
  38.40 0.3052     -9999  -9999 
  38.60 0.3084     -9999  -9999 
  38.80 0.3122     -9999  -9999 
  39.00 0.3103     -9999  -9999 
  39.20 0.3065     -9999  -9999 
  39.40 0.3059     -9999  -9999 
  39.60 0.3027     -9999  -9999 
  39.80 0.3014     -9999  -9999 
  40.00 0.3040     -9999  -9999 
  40.20 0.3072     -9999  -9999 
  40.40 0.3103     -9999  -9999 
  40.60 0.3059     -9999  -9999 
  40.80 0.2989     -9999  -9999 
  41.00 0.2976     -9999  -9999 
  41.20 0.3002     -9999  -9999 
  41.40 0.2989     -9999  -9999 
  41.60 0.2976     -9999  -9999 
  41.80 0.2995     -9999  -9999 
  42.00 0.3021     -9999  -9999 
  42.20 0.3052     -9999  -9999 
  42.40 0.3040     -9999  -9999 
  42.60 0.3072     -9999  -9999 
  42.80 0.3116     -9999  -9999 
  43.00 0.3173     -9999  -9999 
  43.20 0.3243     -9999  -9999 
  43.40 0.3173     -9999  -9999 
  43.60 0.3173     -9999  -9999 
  43.80 0.3243     -9999  -9999 
  44.00 0.3357     -9999  -9999 
  44.20 0.3160     -9999  -9999 
  44.40 0.3046     -9999  -9999 
  44.60 0.3002     -9999  -9999 
  44.80 0.2989     -9999  -9999 
  45.00 0.2989     -9999  -9999 
  45.20 0.2989     -9999  -9999 
  45.40 0.2995     -9999  -9999 
  45.60 0.3002     -9999  -9999 
  45.80 0.3008     -9999  -9999 
  46.00 0.3014     -9999  -9999 
  46.20 0.3014     -9999  -9999 
  46.40 0.3014     -9999  -9999 
  46.60 0.3008     -9999  -9999 
  46.80 0.3002     -9999  -9999 
  47.00 0.3002     -9999  -9999 
  47.20 0.3002     -9999  -9999 
  47.40 0.3008     -9999  -9999 
  47.60 0.3014     -9999  -9999 
  47.80 0.3021     -9999  -9999 
  48.00 0.3033     -9999  -9999 
  48.20 0.3059     -9999  -9999 
  48.40 0.3091     -9999  -9999 
  48.60 0.3097     -9999  -9999 
  48.80 0.3091     -9999  -9999 
  49.00 0.3103     -9999  -9999 
  49.20 0.3116     -9999  -9999 
  49.40 0.3097     -9999  -9999 
  49.60 0.3084     -9999  -9999 
  49.80 0.3065     -9999  -9999 
  50.00 0.3065     -9999  -9999 
  50.20 0.3078     -9999  -9999 
  50.40 0.3110     -9999  -9999 
  50.60 0.3167     -9999  -9999 
  50.80 0.3236     -9999  -9999 
  51.00 0.3319     -9999  -9999 
  51.20 0.3300     -9999  -9999 
  51.40 0.3211     -9999  -9999 
  51.60 0.3224     -9999  -9999 
  51.80 0.3243     -9999  -9999 
  52.00 0.3186     -9999  -9999 
  52.20 0.3148     -9999  -9999 
  52.40 0.3167     -9999  -9999 
  52.60 0.3116     -9999  -9999 
  52.80 0.3065     -9999  -9999 
  53.00 0.3084     -9999  -9999 
  53.20 0.3091      6.80  -9999 
  53.40 0.3059      7.44  -9999 
  53.60 0.3072      7.91  -9999 
  53.80 0.3097      7.60  -9999 
  54.00 0.3135      7.12  -9999 
  54.20 0.3179      6.64  -9999 
  54.40 0.3243      8.23  -9999 
  54.60 0.3148     10.45  -9999 
  54.80 0.3097     12.20  -9999 
  55.00 0.3135     10.45  -9999 
  55.20 0.3116      8.55  -9999 
  55.40 0.3135      7.28  -9999 
  55.60 0.3186      6.64  -9999 
  55.80 0.3135      6.80  -9999 
  56.00 0.3046      6.96  -9999 
  56.20 0.3021      7.28  -9999 
  56.40 0.3021      7.44  -9999 
  56.60 0.3021      7.76  -9999 
  56.80 0.3014      8.23  -9999 
  57.00 0.3008      8.55  -9999 
  57.20 0.3014      8.71  -9999 
  57.40 0.3033      8.87  -9999 
  57.60 0.3040      9.02  -9999 
  57.80 0.3040      9.34  -9999 
  58.00 0.3033      9.34  -9999 
  58.20 0.3033      9.66  -9999 
  58.40 0.3040      9.66  -9999 
  58.60 0.3046      9.66  -9999 
  58.80 0.3046      9.98  -9999 
  59.00 0.3046     10.29  -9999 
  59.20 0.3052     10.45  -9999 
  59.40 0.3091     10.77  -9999 
  59.60 0.3198     10.93  -9999 
  59.80 0.3370     11.40  -9999 
  60.00 0.3135     12.04  -9999 
  60.20 0.3091     12.67  -9999 
  60.40 0.3110     13.15  -9999 
  60.60 0.3129     13.78  -9999 
  60.80 0.3154     14.42  -9999 
  61.00 0.3141     15.05  -9999 
  61.20 0.3122     15.69  -9999 
  61.40 0.3122     16.48  -9999 
  61.60 0.3192     17.27  -9999 
  61.80 0.3332     17.91  -9999 
  62.00 0.3256     18.38  -9999 
  62.20 0.3256     18.86  -9999 
  62.40 0.3357     19.34  -9999 
  62.60 0.3313     19.81  -9999 
  62.80 0.3236     20.29  -9999 
  63.00 0.3249     20.76  -9999 
  63.20 0.3211     21.40  -9999 
  63.40 0.3173     22.19  -9999 
  63.60 0.3122     22.83  -9999 
  63.80 0.3078     23.78  -9999 
  64.00 0.3046     25.05  -9999 
  64.20 0.3033     26.00  51.23 
  64.40 0.3046     26.79  49.48 
  64.60 0.3052     25.84  47.74 
  64.80 0.3072     24.41  45.83 
  65.00 0.3091     23.14  43.93 
  65.20 0.3116     21.72  42.18 
  65.40 0.3129     19.97  40.28 
  65.60 0.3135     18.86  38.85 
  65.80 0.3122     18.23  38.06 
  66.00 0.3097     17.75  38.53 
  66.20 0.3078     17.75  39.80 
  66.40 0.3065     18.23  41.39 
  66.60 0.3046     18.70  42.82 
  66.80 0.3065     19.34  44.40 
  67.00 0.3091     19.97  45.51 
  67.20 0.3091     20.29  46.15 
  67.40 0.3072     20.61  46.94 
  67.60 0.3052     21.08  47.74 
  67.80 0.3046     21.56  48.21 
  68.00 0.3040     21.72  48.69 
  68.20 0.3040     21.72  49.32 
  68.40 0.3040     21.56  49.80 
  68.60 0.3040     21.40  49.96 
  68.80 0.3046     20.76  49.48 
  69.00 0.3052     20.61  48.85 
  69.20 0.3059     20.45  48.53 
  69.40 0.3078     20.13  48.85 
  69.60 0.3154     20.29  49.48 
  69.80 0.3325     20.61  49.96 
  70.00 0.3179     21.08  49.96 
  70.20 0.3091     21.56  49.96 
  70.40 0.3052     22.51  49.80 
  70.60 0.3027     24.25  49.64 
  70.80 0.3008     26.00  49.32 
  71.00 0.3002     28.38  49.00 
  71.20 0.2995     31.24  48.53 
  71.40 0.2989     34.57  47.89 
  71.60 0.2983     37.58  47.42 
  71.80 0.2983     39.64  46.94 
  72.00 0.2983     41.39  46.47 
  72.20 0.2976     42.66  45.99 
  72.40 0.2976     43.77  45.36 
  72.60 0.2976     44.09  44.56 
  72.80 0.2983     43.93  44.09 
  73.00 0.2989     43.45  43.61 
  73.20 0.3002     42.98  43.13 
  73.40 0.3014     42.66  42.66 
