~Version information
  VERS.                            1.20: CWLS LAS  -  VERSION 1.20
  WRAP.                              NO: One line per depth step
~Well information
# MNEM.UNIT
# ====.=========== ====================:===================
  STRT.M                          25.00: First depth in file
  STOP.M                         410.00: Last depth in file
  STEP.M                           0.20: Depth increment
  NULL.                           -9999: Null values
  WELL.                            WELL: 5ALS
  UWI .                  UNIQUE WELL ID: 5 ALS
  FLD .                           FIELD: SHkapovskaja-JEKS
  LOC .                        LOCATION:
  CNTY.                          COUNTY:
  STAT.                           STATE: Bashkortostan
  CTRY.                         COUNTRY: Rossija
  SRVC.                 SERVICE COMPANY: SHkapovskaja PGJE
  DATE.                        LOG DATE: 22.05.2006
  API .                      API NUMBER:
~Parameter information block
# MNEM.UNIT
# ====.================================:===================
  DTVR.               25.05.1960 00:00 : Data i vremja zamera krivoi'
  DTIS.                     25.05.1960 : Data okonchanija issledovanii'
  SPMS.                  ocifr.analog. : Sposob poluch cifrovogo massiva
  OCFR.                         skaner : Ustroi'stvo ocifrovki
  PRHJ.                 otkrytyi' stvol : Uslovija prohojdenija pribora
  DNOM.MM                          298 : Nominal'nyi' diametr skvajiny
  MSHGL.                            500 : Masshtab glubin karotajnoi' diagrammy
  TKRV.                            ISH : Tip krivoi' po sposobu preobrazovanija
#~Other information
# ------------------------- REMARKS  AREA ------------------
~Curve information
# MNEM.UNIT
# ====.================================:===================
 DEPT .M                              : Depth curve
 DS   .M                              : Kavernogramma
 PZ   .OMM                            : Potencial-zond
 PS   .MV                             : PS
~ASCII Log Data
# ...
 219.40 0.2964     10.14  53.45 
 219.60 0.2970     10.29  52.65 
 219.80 0.2970     10.29  51.86 
 220.00 0.2970     10.29  51.38 
 220.20 0.2970     10.29  51.07 
 220.40 0.2970     10.29  50.91 
 220.60 0.2970     10.29  51.07 
 220.80 0.2970     10.29  51.38 
 221.00 0.2970     10.29  51.86 
 221.20 0.2970     10.29  52.81 
 221.40 0.2970     10.29  53.61 
 221.60 0.2976     10.29  54.24 
 221.80 0.2976     10.29  53.92 
 222.00 0.2976     10.45  52.97 
 222.20 0.2970     10.61  50.43 
 222.40 0.2970     10.61  46.94 
 222.60 0.2976     10.45  44.40 
 222.80 0.2989     10.29  41.87 
 223.00 0.3002     10.29  39.33 
 223.20 0.3014     10.29  36.15 
 223.40 0.3027     10.29  33.14 
 223.60 0.3021     10.29  31.08 
 223.80 0.3052     10.29  30.12 
 224.00 0.3141     10.14  29.65 
 224.20 0.3103      9.98  29.65 
 224.40 0.3002      9.98  29.65 
 224.60 0.3027      9.82  29.17 
 224.80 0.3078      9.66  28.22 
 225.00 0.3065      9.66  27.43 
 225.20 0.3008      9.66  26.95 
 225.40 0.2976      9.66  26.79 
 225.60 0.2964      9.66  27.27 
 225.80 0.2957      9.66  27.90 
 226.00 0.2951      9.66  28.70 
 226.20 0.2951      9.66  29.81 
 226.40 0.2951      9.50  31.39 
 226.60 0.2951      9.34  32.82 
 226.80 0.2945      9.34  34.73 
 227.00 0.2938      9.34  36.47 
 227.20 0.2932      9.18  37.90 
 227.40 0.2932      9.02  39.33 
 227.60 0.2926      8.87  40.60 
 227.80 0.2926      8.71  41.87 
 228.00 0.2919      8.71  42.82 
 228.20 0.2913      8.71  43.29 
 228.40 0.2907      8.55  43.77 
 228.60 0.2900      8.71  43.93 
 228.80 0.2900      8.71  43.61 
 229.00 0.2894      8.71  43.13 
 229.20 0.2900      8.71  42.34 
 229.40 0.2907      8.87  41.55 
 229.60 0.2919      9.02  40.91 
 229.80 0.2938      9.02  40.60 
 230.00 0.2957      9.02  40.44 
 230.20 0.2983      9.02  40.60 
 230.40 0.2989      9.02  40.91 
 230.60 0.2970      9.02  41.39 
 230.80 0.2951      8.71  42.34 
 231.00 0.2932      8.71  44.72 
 231.20 0.2919      8.71  47.10 
 231.40 0.2919      8.71  48.69 
 231.60 0.2919      8.71  49.80 
 231.80 0.2913      8.71  50.75 
 232.00 0.2907      8.71  51.54 
 232.20 0.2907      8.71  52.34 
 232.40 0.2900      8.71  52.97 
 232.60 0.2900      8.71  53.29 
 232.80 0.2900      8.71  53.76 
 233.00 0.2900      8.55  54.08 
 233.20 0.2900      8.39  54.56 
 233.40 0.2900      8.39  54.87 
 233.60 0.2907      8.23  55.19 
 233.80 0.2907      8.07  55.51 
 234.00 0.2907      8.07  55.98 
 234.20 0.2907      7.91  56.30 
 234.40 0.2913      7.76  56.46 
 234.60 0.2913      7.76  56.94 
 234.80 0.2919      7.44  57.25 
 235.00 0.2919      7.44  57.57 
 235.20 0.2919      7.44  57.73 
 235.40 0.2919      7.12  58.05 
 235.60 0.2919      7.12  58.21 
 235.80 0.2913      6.96  58.21 
 236.00 0.2913      6.64  58.52 
 236.20 0.2913      6.80  58.68 
 236.40 0.2919      6.49  59.00 
 236.60 0.2919      6.49  59.16 
 236.80 0.2926      6.49  59.63 
 237.00 0.2938      6.49  59.95 
 237.20 0.2951      6.49  60.59 
 237.40 0.2957      6.49  61.22 
 237.60 0.2970      6.49  62.01 
 237.80 0.2964      6.64  62.65 
 238.00 0.2957      6.80  63.44 
 238.20 0.2957      7.12  64.71 
 238.40 0.2964      7.12  66.61 
 238.60 0.2964      7.28  69.15 
 238.80 0.2976      7.44  71.69 
 239.00 0.2989      7.60  74.07 
 239.20 0.2995      7.76  75.97 
 239.40 0.2983      7.91  77.56 
 239.60 0.2957      8.23  78.83 
 239.80 0.2976      8.39  79.78 
 240.00 0.2989      8.71  80.58 
 240.20 0.2970      8.87  81.21 
 240.40 0.2970      9.02  82.00 
 240.60 0.2983      9.02  82.80 
 240.80 0.2976      9.18  83.27 
 241.00 0.2951      9.34  83.59 
 241.20 0.2938      9.34  83.75 
 241.40 0.2964      9.34  84.07 
 241.60 0.2983      9.34  84.22 
 241.80 0.2989      9.34  84.22 
 242.00 0.2989      9.34  84.22 
 242.20 0.2976      9.34  84.22 
 242.40 0.2945      9.34  84.22 
 242.60 0.2926      9.34  84.22 
 242.80 0.2913      9.18  84.07 
 243.00 0.2900      9.02  83.91 
 243.20 0.2888      9.02  83.43 
 243.40 0.2881      9.02  82.96 
 243.60 0.2868      8.87  82.16 
 243.80 0.2862      8.71  81.37 
 244.00 0.2862      8.71  80.42 
 244.20 0.2862      8.71  79.15 
 244.40 0.2868      8.71  78.04 
 244.60 0.2868      8.71  76.29 
 244.80 0.2868      8.55  74.55 
 245.00 0.2868      8.71  72.48 
 245.20 0.2862      8.55  70.26 
 245.40 0.2862      8.71  68.20 
 245.60 0.2868      8.71  66.14 
 245.80 0.2868      8.71  64.23 
 246.00 0.2862      9.02  62.65 
 246.20 0.2862      9.02  61.06 
 246.40 0.2875      9.02  59.32 
 246.60 0.2900      9.34  57.25 
 246.80 0.2926      9.50  54.08 
 247.00 0.2932      9.50  49.80 
 247.20 0.2938      9.66  45.36 
 247.40 0.2976      9.82  42.50 
 247.60 0.3002      9.98  40.60 
 247.80 0.2976      9.98  39.33 
 248.00 0.2989      9.98  38.37 
 248.20 0.3014     10.14  37.74 
 248.40 0.3014     10.29  37.26 
 248.60 0.2976     10.29  37.11 
 248.80 0.2964     10.45  36.79 
 249.00 0.2932     10.45  36.31 
 249.20 0.2919     10.61  35.84 
 249.40 0.2945     10.61  35.36 
 249.60 0.2970     10.61  35.04 
 249.80 0.2983     10.61  34.88 
 250.00 0.2951     10.61  34.73 
 250.20 0.2938     10.61  35.04 
 250.40 0.2938     10.61  35.52 
 250.60 0.2938     10.61  36.15 
 250.80 0.2938     10.61  37.11 
 251.00 0.2938     10.61  38.22 
 251.20 0.2938     10.61  39.96 
 251.40 0.2938     10.61  42.34 
 251.60 0.2945     10.61  45.36 
 251.80 0.2945     10.61  49.00 
 252.00 0.2951     10.61  52.34 
 252.20 0.2945     10.45  54.72 
 252.40 0.2945     10.29  56.78 
 252.60 0.2945     10.29  58.52 
 252.80 0.2938     10.29  60.43 
 253.00 0.2938     10.14  61.70 
 253.20 0.2938      9.98  63.12 
 253.40 0.2932      9.98  64.23 
 253.60 0.2926      9.98  65.35 
 253.80 0.2926      9.98  66.61 
 254.00 0.2926      9.82  67.73 
 254.20 0.2926      9.66  68.68 
 254.40 0.2926      9.66  69.31 
 254.60 0.2926      9.66  69.79 
 254.80 0.2926      9.50  69.95 
 255.00 0.2926      9.34  69.79 
 255.20 0.2926      9.34  69.63 
 255.40 0.2926      9.34  69.31 
 255.60 0.2926      9.34  68.99 
 255.80 0.2926      9.02  68.68 
 256.00 0.2926      9.02  68.36 
 256.20 0.2926      9.02  68.52 
 256.40 0.2926      9.02  68.84 
 256.60 0.2919      9.02  69.31 
 256.80 0.2919      9.02  69.63 
 257.00 0.2926      8.87  69.63 
 257.20 0.2919      8.87  69.47 
 257.40 0.2919      8.71  68.99 
 257.60 0.2919      8.71  68.52 
 257.80 0.2919      8.71  68.36 
 258.00 0.2919      8.71  68.52 
 258.20 0.2919      8.71  68.68 
 258.40 0.2919      8.71  68.20 
 258.60 0.2919      8.71  67.41 
 258.80 0.2919      8.71  66.46 
 259.00 0.2926      8.71  65.35 
 259.20 0.2926      8.71  63.92 
 259.40 0.2926      8.71  62.01 
 259.60 0.2932      8.71  59.95 
 259.80 0.2932      8.87  58.05 
 260.00 0.2932      9.02  56.46 
 260.20 0.2938      9.02  55.83 
 260.40 0.2945      9.02  55.03 
 260.60 0.2945      9.02  54.56 
 260.80 0.2945      9.02  54.40 
 261.00 0.2938      9.02  54.08 
 261.20 0.2932      9.02  54.08 
 261.40 0.2932      9.34  54.08 
 261.60 0.2932      9.34  54.24 
 261.80 0.2938      9.34  54.56 
 262.00 0.2945      9.34  54.87 
 262.20 0.2951      9.34  55.51 
 262.40 0.2951      9.34  56.14 
 262.60 0.2945      9.34  56.78 
 262.80 0.2932      9.50  57.41 
 263.00 0.2919      9.66  58.36 
 263.20 0.2913      9.50  59.63 
 263.40 0.2913      9.66  60.59 
 263.60 0.2913      9.66  61.38 
 263.80 0.2913      9.66  62.01 
 264.00 0.2913      9.50  62.65 
 264.20 0.2913      9.34  62.65 
 264.40 0.2913      9.34  62.49 
 264.60 0.2919      9.18  62.17 
 264.80 0.2932      9.34  61.85 
 265.00 0.2976      9.34  62.17 
 265.20 0.3046      9.34  62.65 
 265.40 0.3167      9.34  63.12 
 265.60 0.3059      9.34  63.28 
 265.80 0.2945      9.34  63.12 
 266.00 0.2995      9.34  62.81 
 266.20 0.3110      9.34  62.33 
 266.40 0.3033      9.34  61.70 
 266.60 0.2957      9.34  61.06 
 266.80 0.2938      9.34  60.43 
 267.00 0.2957      9.66  60.11 
 267.20 0.2970      9.66  59.79 
 267.40 0.2989      9.66  59.79 
 267.60 0.3021      9.66  59.95 
 267.80 0.3072      9.66  59.95 
