~Version information
  VERS.                            1.20: CWLS LAS  -  VERSION 1.20
  WRAP.                              NO: One line per depth step
~Well information
# MNEM.UNIT
# ====.=========== ====================:===================
  STRT.M                          25.00: First depth in file
  STOP.M                         410.00: Last depth in file
  STEP.M                           0.20: Depth increment
  NULL.                           -9999: Null values
  WELL.                            WELL: 5ALS
  UWI .                  UNIQUE WELL ID: 5 ALS
  FLD .                           FIELD: SHkapovskaja-JEKS
  LOC .                        LOCATION:
  CNTY.                          COUNTY:
  STAT.                           STATE: Bashkortostan
  CTRY.                         COUNTRY: Rossija
  SRVC.                 SERVICE COMPANY: SHkapovskaja PGJE
  DATE.                        LOG DATE: 22.05.2006
  API .                      API NUMBER:
~Parameter information block
# MNEM.UNIT
# ====.================================:===================
  DTVR.               25.05.1960 00:00 : Data i vremja zamera krivoi'
  DTIS.                     25.05.1960 : Data okonchanija issledovanii'
  SPMS.                  ocifr.analog. : Sposob poluch cifrovogo massiva
  OCFR.                         skaner : Ustroi'stvo ocifrovki
  PRHJ.                 otkrytyi' stvol : Uslovija prohojdenija pribora
  DNOM.MM                          298 : Nominal'nyi' diametr skvajiny
  MSHGL.                            500 : Masshtab glubin karotajnoi' diagrammy
  TKRV.                            ISH : Tip krivoi' po sposobu preobrazovanija
#~Other information
# ------------------------- REMARKS  AREA ------------------
~Curve information
# MNEM.UNIT
# ====.================================:===================
 DEPT .M                              : Depth curve
 DS   .M                              : Kavernogramma
 PZ   .OMM                            : Potencial-zond
 PS   .MV                             : PS
~ASCII Log Data
# ...
 268.00 0.2976      9.66  59.79 
 268.20 0.2926      9.98  59.48 
 268.40 0.2926      9.98  59.00 
 268.60 0.2926      9.98  58.21 
 268.80 0.2938      9.98  57.41 
 269.00 0.2951     10.14  55.98 
 269.20 0.2951     10.29  54.72 
 269.40 0.2951     10.29  53.76 
 269.60 0.2951     10.29  53.45 
 269.80 0.2938     10.29  53.29 
 270.00 0.2932     10.29  53.45 
 270.20 0.2938     10.29  53.45 
 270.40 0.2945     10.29  53.45 
 270.60 0.2957     10.29  53.33 
 270.80 0.2970     10.45  53.17 
 271.00 0.2976     10.45  52.65 
 271.20 0.2964     10.45  52.34 
 271.40 0.2951     10.29  52.02 
 271.60 0.2945     10.29  51.54 
 271.80 0.2938     10.29  51.07 
 272.00 0.2932     10.29  50.59 
 272.20 0.2926     10.29  49.96 
 272.40 0.2926     10.14  49.48 
 272.60 0.2932     10.14  48.85 
 272.80 0.2938     10.29  48.21 
 273.00 0.2957     10.29  47.89 
 273.20 0.2983     10.29  47.42 
 273.40 0.3002     10.29  46.94 
 273.60 0.3021     10.45  46.94 
 273.80 0.3033     10.61  47.10 
 274.00 0.2976     10.93  47.58 
 274.20 0.2932     11.25  47.89 
 274.40 0.2913     11.40  48.21 
 274.60 0.2907     11.56  48.53 
 274.80 0.2913     11.72  48.69 
 275.00 0.2926     11.88  48.69 
 275.20 0.2932     11.88  48.69 
 275.40 0.2938     11.88  48.69 
 275.60 0.2938     11.88  48.86 
 275.80 0.2945     11.72  49.04 
 276.00 0.2964     11.56  49.45 
 276.20 0.2989     11.40  49.79 
 276.40 0.3008     11.09  50.24 
 276.60 0.3021     10.93  50.76 
 276.80 0.3027     10.77  51.32 
 277.00 0.3008     10.61  52.01 
 277.20 0.2976     10.45  52.71 
 277.40 0.2957     10.29  53.43 
 277.60 0.2945     10.29  54.03 
 277.80 0.2938     10.29  54.34 
 278.00 0.2945     10.29  54.39 
 278.20 0.2957     10.29  54.40 
 278.40 0.2964     10.29  54.22 
 278.60 0.2970     10.29  53.97 
 278.80 0.2957     10.29  53.75 
 279.00 0.2938     10.29  53.50 
 279.20 0.2932     10.29  53.29 
 279.40 0.2919     10.29  53.14 
 279.60 0.2919     10.29  53.09 
 279.80 0.2926     10.29  53.12 
 280.00 0.2926     10.29  53.21 
 280.20 0.2926     10.29  53.48 
 280.40 0.2926     10.29  53.94 
 280.60 0.2926     10.29  54.45 
 280.80 0.2926     10.29  55.04 
 281.00 0.2926     10.45  55.65 
 281.20 0.2926     10.45  56.11 
 281.40 0.2926     10.45  56.39 
 281.60 0.2926     10.61  56.56 
 281.80 0.2926     10.61  56.61 
 282.00 0.2919     10.61  56.62 
 282.20 0.2926     10.61  56.68 
 282.40 0.2926     10.61  56.82 
 282.60 0.2919     10.61  56.91 
 282.80 0.2919     10.61  57.00 
 283.00 0.2919     10.61  57.09 
 283.20 0.2926     10.61  57.20 
 283.40 0.2926     10.61  57.24 
 283.60 0.2926     10.61  57.25 
 283.80 0.2926     10.61  57.24 
 284.00 0.2926     10.61  57.08 
 284.20 0.2926     10.61  56.88 
 284.40 0.2932     10.61  56.61 
 284.60 0.2926     10.61  56.25 
 284.80 0.2926     10.61  55.88 
 285.00 0.2932     10.61  55.33 
 285.20 0.2932     10.45  54.79 
 285.40 0.2932     10.45  54.48 
 285.60 0.2932     10.29  54.24 
 285.80 0.2938     10.29  54.05 
 286.00 0.2932     10.29  53.90 
 286.20 0.2932     10.29  53.95 
 286.40 0.2932     10.14  54.01 
 286.60 0.2932     10.29  54.06 
 286.80 0.2932      9.98  54.08 
 287.00 0.2932      9.98  54.15 
 287.20 0.2932      9.98  54.28 
 287.40 0.2932      9.98  54.47 
 287.60 0.2926      9.98  54.84 
 287.80 0.2926      9.98  55.18 
 288.00 0.2926      9.98  55.49 
 288.20 0.2919      9.98  55.71 
 288.40 0.2919      9.98  55.91 
 288.60 0.2919      9.82  55.97 
 288.80 0.2919      9.82  55.98 
 289.00 0.2926      9.82  55.97 
 289.20 0.2926      9.82  55.79 
 289.40 0.2926      9.98  55.50 
 289.60 0.2926      9.98  55.21 
 289.80 0.2926      9.98  54.99 
 290.00 0.2919      9.98  54.84 
 290.20 0.2919      9.98  54.77 
 290.40 0.2919      9.98  54.92 
 290.60 0.2919      9.98  55.18 
 290.80 0.2919      9.98  55.32 
 291.00 0.2913     10.14  55.43 
 291.20 0.2913     10.14  55.62 
 291.40 0.2913     10.29  55.78 
 291.60 0.2913     10.29  55.91 
 291.80 0.2907     10.29  55.85 
 292.00 0.2907     10.29  55.72 
 292.20 0.2907     10.29  55.61 
 292.40 0.2900     10.29  55.47 
 292.60 0.2900     10.29  55.29 
 292.80 0.2900     10.61  55.02 
 293.00 0.2900     10.61  54.80 
 293.20 0.2894     10.61  54.73 
 293.40 0.2894     10.93  54.80 
 293.60 0.2888     11.09  55.03 
 293.80 0.2894     11.25  55.26 
 294.00 0.2900     11.56  55.58 
 294.20 0.2900     11.88  55.95 
 294.40 0.2900     12.20  56.21 
 294.60 0.2900     12.67  56.22 
 294.80 0.2907     12.83  56.08 
 295.00 0.2907     12.83  55.83 
 295.20 0.2907     12.83  55.62 
 295.40 0.2907     12.67  55.34 
 295.60 0.2913     12.51  55.03 
 295.80 0.2913     12.51  54.73 
 296.00 0.2913     12.36  54.51 
 296.20 0.2913     12.20  54.25 
 296.40 0.2919     12.20  54.10 
 296.60 0.2919     12.36  53.91 
 296.80 0.2919     12.51  53.79 
 297.00 0.2919     12.99  53.77 
 297.20 0.2913     13.31  53.83 
 297.40 0.2913     13.63  53.97 
 297.60 0.2913     14.10  54.06 
 297.80 0.2913     14.26  54.16 
 298.00 0.2913     14.58  54.33 
 298.20 0.2913     14.89  54.40 
 298.40 0.2913     15.05  54.57 
 298.60 0.2913     15.05  54.70 
 298.80 0.2913     15.37  54.89 
 299.00 0.2913     15.37  55.02 
 299.20 0.2913     15.37  55.16 
 299.40 0.2913     15.37  55.31 
 299.60 0.2913     15.53  55.52 
 299.80 0.2913     15.69  55.65 
 300.00 0.2913     16.01  55.84 
 300.20 0.2913     16.01  55.97 
 300.40 0.2913     16.32  55.98 
 300.60 0.2913     16.48  56.16 
 300.80 0.2913     16.64  56.29 
 301.00 0.2913     16.80  56.30 
 301.20 0.2907     16.96  56.43 
 301.40 0.2907     16.96  56.51 
 301.60 0.2907     17.12  56.61 
 301.80 0.2907     17.27  56.62 
 302.00 0.2907     17.27  56.62 
 302.20 0.2907     17.59  56.62 
 302.40 0.2907     17.75  56.62 
 302.60 0.2907     17.91  56.62 
 302.80 0.2907     18.23  56.62 
 303.00 0.2907     18.54  56.62 
 303.20 0.2907     19.02  56.62 
 303.40 0.2907     19.50  56.62 
 303.60 0.2907     19.97  56.62 
 303.80 0.2907     20.92  56.62 
 304.00 0.2907     21.72  56.62 
 304.20 0.2907     22.51  56.62 
 304.40 0.2907     23.62  56.62 
 304.60 0.2907     24.73  56.62 
 304.80 0.2907     25.37  56.62 
 305.00 0.2907     26.32  56.62 
 305.20 0.2907     27.27  56.62 
 305.40 0.2907     28.86  56.62 
 305.60 0.2907     30.60  56.57 
 305.80 0.2907     32.35  56.35 
 306.00 0.2907     34.09  56.31 
 306.20 0.2907     36.63  56.30 
 306.40 0.2907     39.33  56.30 
 306.60 0.2907     41.87  56.30 
 306.80 0.2907     44.40  56.23 
 307.00 0.2907     46.94  56.17 
 307.20 0.2907     49.16  56.15 
 307.40 0.2907     51.23  56.14 
 307.60 0.2900     53.29  56.14 
 307.80 0.2900     55.35  56.14 
 308.00 0.2900     56.78  56.14 
 308.20 0.2894     58.52  56.14 
 308.40 0.2894     60.59  56.14 
 308.60 0.2894     62.49  56.20 
 308.80 0.2894     64.55  56.29 
 309.00 0.2894     66.77  56.30 
 309.20 0.2894     68.99  56.30 
 309.40 0.2894     70.74  56.30 
 309.60 0.2894     72.80  56.30 
 309.80 0.2894     74.86  56.30 
 310.00 0.2894     76.61  56.30 
 310.20 0.2894     78.20  56.30 
 310.40 0.2894     79.47  56.30 
 310.60 0.2894     80.73  56.30 
 310.80 0.2900     81.84  56.36 
 311.00 0.2894     83.11  56.45 
 311.20 0.2894     84.07  56.46 
 311.40 0.2894     85.18  56.46 
 311.60 0.2894     86.13  56.46 
 311.80 0.2894     86.92  56.46 
 312.00 0.2900     87.71  56.46 
 312.20 0.2894     88.35  56.46 
 312.40 0.2894     88.67  56.46 
 312.60 0.2894     89.14  56.46 
 312.80 0.2894     89.46  56.51 
 313.00 0.2894     89.62  56.61 
 313.20 0.2894     89.62  56.62 
 313.40 0.2894     89.62  56.62 
 313.60 0.2894     89.62  56.62 
 313.80 0.2894     89.62  56.62 
 314.00 0.2894     89.46  56.62 
 314.20 0.2894     89.14  56.62 
 314.40 0.2888     88.67  56.62 
 314.60 0.2888     88.35  56.62 
 314.80 0.2888     87.71  56.62 
 315.00 0.2888     87.08  56.62 
 315.20 0.2888     86.45  56.62 
 315.40 0.2888     85.81  56.62 
 315.60 0.2888     84.86  56.62 
 315.80 0.2888     84.07  56.62 
 316.00 0.2888     83.27  56.62 
 316.20 0.2894     82.48  56.62 
 316.40 0.2894     81.84  56.57 
