~Version information
  VERS.                            1.20: CWLS LAS  -  VERSION 1.20
  WRAP.                              NO: One line per depth step
~Well information
# MNEM.UNIT
# ====.=========== ====================:===================
  STRT.M                          25.00: First depth in file
  STOP.M                         410.00: Last depth in file
  STEP.M                           0.20: Depth increment
  NULL.                           -9999: Null values
  WELL.                            WELL: 5ALS
  UWI .                  UNIQUE WELL ID: 5 ALS
  FLD .                           FIELD: SHkapovskaja-JEKS
  LOC .                        LOCATION:
  CNTY.                          COUNTY:
  STAT.                           STATE: Bashkortostan
  CTRY.                         COUNTRY: Rossija
  SRVC.                 SERVICE COMPANY: SHkapovskaja PGJE
  DATE.                        LOG DATE: 22.05.2006
  API .                      API NUMBER:
~Parameter information block
# MNEM.UNIT
# ====.================================:===================
  DTVR.               25.05.1960 00:00 : Data i vremja zamera krivoi'
  DTIS.                     25.05.1960 : Data okonchanija issledovanii'
  SPMS.                  ocifr.analog. : Sposob poluch cifrovogo massiva
  OCFR.                         skaner : Ustroi'stvo ocifrovki
  PRHJ.                 otkrytyi' stvol : Uslovija prohojdenija pribora
  DNOM.MM                          298 : Nominal'nyi' diametr skvajiny
  MSHGL.                            500 : Masshtab glubin karotajnoi' diagrammy
  TKRV.                            ISH : Tip krivoi' po sposobu preobrazovanija
#~Other information
# ------------------------- REMARKS  AREA ------------------
~Curve information
# MNEM.UNIT
# ====.================================:===================
 DEPT .M                              : Depth curve
 DS   .M                              : Kavernogramma
 PZ   .OMM                            : Potencial-zond
 PS   .MV                             : PS
~ASCII Log Data
# ...
  73.60 0.3021     42.66  42.02 
  73.80 0.3021     42.82  41.87 
  74.00 0.3021     42.98  42.02 
  74.20 0.3014     43.77  42.34 
  74.40 0.3002     44.88  42.66 
  74.60 0.2995     45.83  42.98 
  74.80 0.2995     46.62  43.45 
  75.00 0.3002     47.26  43.93 
  75.20 0.3014     47.42  44.24 
  75.40 0.3040     47.58  44.40 
  75.60 0.3059     47.74  44.40 
  75.80 0.3065     47.58  44.24 
  76.00 0.3046     47.42  44.24 
  76.20 0.3014     46.94  44.24 
  76.40 0.2995     46.47  44.24 
  76.60 0.2983     45.99  44.09 
  76.80 0.2970     45.67  43.77 
  77.00 0.2964     44.88  43.29 
  77.20 0.2970     43.45  42.66 
  77.40 0.2989     42.34  42.34 
  77.60 0.3008     40.60  42.02 
  77.80 0.3008     38.69  41.71 
  78.00 0.2995     37.58  41.23 
  78.20 0.2983     36.31  40.75 
  78.40 0.2970     35.52  40.75 
  78.60 0.2989     35.04  41.07 
  78.80 0.3046     34.41  41.39 
  79.00 0.3148     34.09  42.18 
  79.20 0.3167     33.46  42.82 
  79.40 0.3046     32.82  43.45 
  79.60 0.2957     32.82  44.24 
  79.80 0.3008     33.46  44.88 
  80.00 0.3027     34.09  45.67 
  80.20 0.2995     34.73  46.31 
  80.40 0.2983     35.52  46.94 
  80.60 0.2989     36.31  47.42 
  80.80 0.2995     36.95  48.05 
  81.00 0.3002     37.74  48.69 
  81.20 0.3008     38.37  49.44 
  81.40 0.3008     39.01  50.11 
  81.60 0.3008     39.80  50.57 
  81.80 0.3008     40.44  50.96 
  82.00 0.3014     41.07  51.50 
  82.20 0.3008     41.71  51.98 
  82.40 0.3008     42.50  52.40 
  82.60 0.3008     43.77  52.66 
  82.80 0.3008     45.20  52.97 
  83.00 0.3002     46.47  53.16 
  83.20 0.3002     47.89  53.40 
  83.40 0.3002     49.48  53.56 
  83.60 0.3002     51.38  53.60 
  83.80 0.3002     52.97  53.60 
  84.00 0.3002     54.08  53.61 
  84.20 0.3008     55.03  53.48 
  84.40 0.3021     55.35  53.40 
  84.60 0.3033     55.51  53.30 
  84.80 0.3033     55.67  53.29 
  85.00 0.3027     56.14  53.29 
  85.20 0.3021     56.78  53.16 
  85.40 0.3008     57.89  53.01 
  85.60 0.2995     58.84  52.80 
  85.80 0.2989     59.79  52.49 
  86.00 0.2989     60.74  52.25 
  86.20 0.3002     61.85  51.99 
  86.40 0.3014     62.97  51.63 
  86.60 0.3021     64.08  51.25 
  86.80 0.3033     65.66  50.79 
  87.00 0.3046     67.41  50.26 
  87.20 0.3052     69.31  49.88 
  87.40 0.3046     71.53  49.49 
  87.60 0.3033     74.86  49.16 
  87.80 0.3033     80.26  49.02 
  88.00 0.3052     86.13  48.88 
  88.20 0.3072     91.21  48.73 
  88.40 0.3097     98.34  48.69 
  88.60 0.3116    101.56  48.69 
  88.80 0.3078    104.77  48.51 
  89.00 0.3052    107.99  48.39 
  89.20 0.3052    111.20  48.37 
  89.40 0.3052    114.42  48.37 
  89.60 0.3052    117.63  48.37 
  89.80 0.3033    120.84  48.37 
  90.00 0.3008    124.06  48.42 
  90.20 0.2995    127.27  48.57 
  90.40 0.2989    130.49  48.67 
  90.60 0.2989    133.70  48.69 
  90.80 0.2989    136.91  48.69 
  91.00 0.2989    140.13  48.69 
  91.20 0.2989    143.34  48.69 
  91.40 0.2983    146.56  48.51 
  91.60 0.2983    149.77  48.39 
  91.80 0.2976    152.98  48.20 
  92.00 0.2976    155.38  48.07 
  92.20 0.2970    158.56  48.05 
  92.40 0.2970    160.94  48.05 
  92.60 0.2970    163.32  48.05 
  92.80 0.2970    164.90  48.05 
  93.00 0.2976    167.28  48.05 
  93.20 0.2976    168.87  48.05 
  93.40 0.2976    171.25  48.05 
  93.60 0.2976    172.84  48.05 
  93.80 0.2976    173.63  48.05 
  94.00 0.2976    175.22  47.93 
  94.20 0.2976    176.80  47.84 
  94.40 0.2970    177.60  47.75 
  94.60 0.2970    179.07  47.79 
  94.80 0.2964    179.07  47.83 
  95.00 0.2964    179.07  47.87 
  95.20 0.2964    179.07  48.01 
  95.40 0.2964    177.44  48.05 
  95.60 0.2957    176.04  48.05 
  95.80 0.2951    174.65  48.05 
  96.00 0.2951    173.25  48.05 
  96.20 0.2951    171.39  48.05 
  96.40 0.2951    170.00  47.88 
  96.60 0.2951    168.08  47.75 
  96.80 0.2951    165.70  47.56 
  97.00 0.2951    164.11  47.38 
  97.20 0.2951    162.52  47.10 
  97.40 0.2951    160.14  46.91 
  97.60 0.2951    157.76  46.62 
  97.80 0.2951    155.38  46.31 
  98.00 0.2951    153.00  45.99 
  98.20 0.2951    150.62  45.62 
  98.40 0.2951    149.04  45.21 
  98.60 0.2951    146.66  44.78 
  98.80 0.2951    143.49  44.09 
  99.00 0.2951    140.31  43.33 
  99.20 0.2951    137.14  42.54 
  99.40 0.2957    133.17  41.82 
  99.60 0.2957    128.41  40.91 
  99.80 0.2957    123.65  40.03 
 100.00 0.2957    119.69  38.79 
 100.20 0.2957    115.78  37.33 
 100.40 0.2957    111.87  35.74 
 100.60 0.2957    107.96  34.24 
 100.80 0.2957    104.05  32.96 
 101.00 0.2957    100.14  32.06 
 101.20 0.2964     96.76  31.63 
 101.40 0.2964     93.27  31.74 
 101.60 0.2964     89.14  32.03 
 101.80 0.2964     85.49  32.35 
 102.00 0.2964     82.48  32.84 
 102.20 0.2964     79.47  33.34 
 102.40 0.2964     76.29  33.81 
 102.60 0.2964     73.44  34.29 
 102.80 0.2964     70.90  34.89 
 103.00 0.2964     68.68  35.47 
 103.20 0.2964     66.14  35.83 
 103.40 0.2964     63.44  36.33 
 103.60 0.2957     59.32  36.70 
 103.80 0.2964     53.92  37.10 
 104.00 0.2964     48.69  37.47 
 104.20 0.2964     45.36  37.94 
 104.40 0.2964     43.29  38.61 
 104.60 0.2964     41.23  39.00 
 104.80 0.2964     39.17  39.45 
 105.00 0.2964     36.63  39.85 
 105.20 0.2964     34.57  40.32 
 105.40 0.2964     32.50  40.67 
 105.60 0.2964     30.12  41.19 
 105.80 0.2957     27.59  41.54 
 106.00 0.2957     25.05  41.99 
 106.20 0.2957     22.51  42.39 
 106.40 0.2957     20.29  42.86 
 106.60 0.2957     17.91  43.51 
 106.80 0.2957     15.85  44.29 
 107.00 0.2951     14.26  45.08 
 107.20 0.2951     13.15  45.87 
 107.40 0.2951     12.67  46.91 
 107.60 0.2951     12.67  47.89 
 107.80 0.2951     12.67  49.07 
 108.00 0.2951     12.99  50.60 
 108.20 0.2951     13.31  52.41 
 108.40 0.2957     13.31  54.69 
 108.60 0.2957     13.31  56.93 
 108.80 0.2957     13.31  59.10 
 109.00 0.2957     13.31  61.00 
 109.20 0.2957     13.31  62.84 
 109.40 0.2957     12.99  64.52 
 109.60 0.2951     12.99  65.91 
 109.80 0.2951     12.99  66.99 
 110.00 0.2951     12.99  67.54 
 110.20 0.2951     12.99  67.70 
 110.40 0.2951     13.31  67.55 
 110.60 0.2951     13.31  67.25 
 110.80 0.2957     13.47  66.93 
 111.00 0.2964     13.63  66.67 
 111.20 0.2964     13.63  66.67 
 111.40 0.2964     13.63  66.99 
 111.60 0.2964     13.78  67.63 
 111.80 0.2970     13.94  68.52 
 112.00 0.2970     13.94  69.54 
 112.20 0.2970     13.94  70.38 
 112.40 0.2976     13.94  71.05 
 112.60 0.2976     14.10  71.64 
 112.80 0.2989     13.94  71.77 
 113.00 0.3002     13.94  71.65 
 113.20 0.3008     13.78  71.44 
 113.40 0.3008     13.78  70.89 
 113.60 0.3008     13.78  70.26 
 113.80 0.3008     13.78  69.86 
 114.00 0.3002     13.63  69.62 
 114.20 0.2989     13.47  69.72 
 114.40 0.2976     13.31  70.15 
 114.60 0.2970     13.31  70.74 
 114.80 0.2964     13.31  70.92 
 115.00 0.2957     13.31  70.71 
 115.20 0.2957     13.31  70.42 
 115.40 0.2957     13.31  70.10 
 115.60 0.2957     13.31  69.66 
 115.80 0.2957     13.31  69.32 
 116.00 0.2957     13.31  68.94 
 116.20 0.2957     13.31  68.48 
 116.40 0.2951     13.31  68.06 
 116.60 0.2951     13.15  67.73 
 116.80 0.2957     13.15  67.28 
 117.00 0.2957     13.15  66.99 
 117.20 0.2964     13.15  66.76 
 117.40 0.2964     12.99  66.51 
 117.60 0.2964     12.99  66.34 
 117.80 0.2970     12.83  66.25 
 118.00 0.2970     12.51  66.03 
 118.20 0.2970     12.20  65.93 
 118.40 0.2964     12.04  65.71 
 118.60 0.2964     11.88  65.49 
 118.80 0.2964     11.72  65.11 
 119.00 0.2964     11.72  64.74 
 119.20 0.2964     11.56  64.17 
 119.40 0.2964     11.56  63.45 
 119.60 0.2964     11.40  62.81 
 119.80 0.2964     11.40  62.30 
 120.00 0.2964     11.25  61.57 
 120.20 0.2964     11.25  60.91 
 120.40 0.2964     11.09  60.27 
 120.60 0.2970     10.93  59.63 
 120.80 0.2970     10.77  59.18 
 121.00 0.2970     10.77  58.84 
 121.20 0.2970     10.77  58.58 
 121.40 0.2970     10.93  58.41 
 121.60 0.2976     10.93  58.25 
 121.80 0.2976     10.93  58.03 
 122.00 0.2976     11.09  57.80 
