~Version information
  VERS.                            1.20: CWLS LAS  -  VERSION 1.20
  WRAP.                              NO: One line per depth step
~Well information
# MNEM.UNIT
# ====.=========== ====================:===================
  STRT.M                          25.00: First depth in file
  STOP.M                         410.00: Last depth in file
  STEP.M                           0.20: Depth increment
  NULL.                           -9999: Null values
  WELL.                            WELL: 5ALS
  UWI .                  UNIQUE WELL ID: 5 ALS
  FLD .                           FIELD: SHkapovskaja-JEKS
  LOC .                        LOCATION:
  CNTY.                          COUNTY:
  STAT.                           STATE: Bashkortostan
  CTRY.                         COUNTRY: Rossija
  SRVC.                 SERVICE COMPANY: SHkapovskaja PGJE
  DATE.                        LOG DATE: 22.05.2006
  API .                      API NUMBER:
~Parameter information block
# MNEM.UNIT
# ====.================================:===================
  DTVR.               25.05.1960 00:00 : Data i vremja zamera krivoi'
  DTIS.                     25.05.1960 : Data okonchanija issledovanii'
  SPMS.                  ocifr.analog. : Sposob poluch cifrovogo massiva
  OCFR.                         skaner : Ustroi'stvo ocifrovki
  PRHJ.                 otkrytyi' stvol : Uslovija prohojdenija pribora
  DNOM.MM                          298 : Nominal'nyi' diametr skvajiny
  MSHGL.                            500 : Masshtab glubin karotajnoi' diagrammy
  TKRV.                            ISH : Tip krivoi' po sposobu preobrazovanija
#~Other information
# ------------------------- REMARKS  AREA ------------------
~Curve information
# MNEM.UNIT
# ====.================================:===================
 DEPT .M                              : Depth curve
 DS   .M                              : Kavernogramma
 PZ   .OMM                            : Potencial-zond
 PS   .MV                             : PS
~ASCII Log Data
# ...
 170.80 0.2995      9.66  59.32 
 171.00 0.3002      9.50  62.97 
 171.20 0.2989      9.34  65.82 
 171.40 0.2970      9.34  68.04 
 171.60 0.2957      9.34  69.47 
 171.80 0.2951      9.34  70.90 
 172.00 0.2951      9.18  71.53 
 172.20 0.2957      9.18  71.69 
 172.40 0.2957      9.18  71.69 
 172.60 0.2957      9.18  71.37 
 172.80 0.2957      9.18  71.06 
 173.00 0.2957      9.18  70.42 
 173.20 0.2964      9.02  69.63 
 173.40 0.2964      9.02  68.52 
 173.60 0.2964      9.18  67.25 
 173.80 0.2964      9.18  65.98 
 174.00 0.2970      9.18  64.39 
 174.20 0.2970      9.34  62.97 
 174.40 0.2976      9.50  61.85 
 174.60 0.2976      9.82  60.90 
 174.80 0.2976      9.82  59.79 
 175.00 0.2983      9.98  59.00 
 175.20 0.2983     10.14  58.36 
 175.40 0.2983     10.29  57.73 
 175.60 0.2989     10.45  57.25 
 175.80 0.2989     10.77  56.78 
 176.00 0.2989     10.77  55.98 
 176.20 0.2989     10.93  55.19 
 176.40 0.2989     11.09  53.92 
 176.60 0.2989     11.09  51.86 
 176.80 0.2989     11.09  49.96 
 177.00 0.2983     10.77  48.53 
 177.20 0.2983     10.77  47.58 
 177.40 0.2983     10.45  47.26 
 177.60 0.2983     10.45  48.37 
 177.80 0.2983     10.14  49.96 
 178.00 0.2989     10.14  51.38 
 178.20 0.2983     10.45  52.49 
 178.40 0.2989     10.45  53.29 
 178.60 0.2989     10.45  54.08 
 178.80 0.2995     10.45  54.56 
 179.00 0.2995     10.45  54.24 
 179.20 0.3002     10.45  53.76 
 179.40 0.3002     10.45  52.97 
 179.60 0.3002     10.45  51.86 
 179.80 0.3008     10.45  51.07 
 180.00 0.3014     10.45  50.43 
 180.20 0.3014     10.45  49.96 
 180.40 0.3027     10.61  49.48 
 180.60 0.3052     10.77  49.00 
 180.80 0.3103     10.77  48.21 
 181.00 0.3167     10.77  47.58 
 181.20 0.3211     11.09  46.62 
 181.40 0.3167     11.09  45.67 
 181.60 0.3072     11.09  44.56 
 181.80 0.3008     11.25  43.13 
 182.00 0.2989     11.40  41.87 
 182.20 0.2983     11.40  40.28 
 182.40 0.2989     11.56  39.01 
 182.60 0.2995     11.72  37.90 
 182.80 0.3002     11.88  36.95 
 183.00 0.3002     12.04  35.68 
 183.20 0.3008     12.04  34.25 
 183.40 0.3008     12.04  32.82 
 183.60 0.3008     12.04  31.55 
 183.80 0.3008     12.20  30.92 
 184.00 0.3002     12.20  30.60 
 184.20 0.3002     12.20  30.44 
 184.40 0.2995     12.04  30.44 
 184.60 0.2995     12.04  30.76 
 184.80 0.2989     12.04  31.39 
 185.00 0.2983     11.88  32.19 
 185.20 0.2976     11.72  32.98 
 185.40 0.2970     11.72  33.30 
 185.60 0.2970     11.56  33.30 
 185.80 0.2976     11.40  32.98 
 186.00 0.2976     11.40  32.82 
 186.20 0.2983     11.25  32.35 
 186.40 0.2989     11.09  31.71 
 186.60 0.2995     11.09  31.39 
 186.80 0.3002     11.09  31.24 
 187.00 0.3008     11.09  31.08 
 187.20 0.2995     10.93  31.08 
 187.40 0.2983     10.77  30.92 
 187.60 0.2983     10.77  31.08 
 187.80 0.2983     10.77  31.55 
 188.00 0.2983     10.61  32.19 
 188.20 0.2995     10.45  33.14 
 188.40 0.3002     10.45  34.41 
 188.60 0.3008     10.45  35.99 
 188.80 0.3008     10.14  37.74 
 189.00 0.3008     10.14  40.28 
 189.20 0.3008     10.14  43.61 
 189.40 0.3008      9.98  47.74 
 189.60 0.3008      9.82  51.54 
 189.80 0.3002      9.82  53.92 
 190.00 0.2989      9.82  55.51 
 190.20 0.2983      9.82  56.78 
 190.40 0.2983      9.82  57.57 
 190.60 0.2976      9.50  58.05 
 190.80 0.2970      9.50  58.52 
 191.00 0.2964      9.50  59.16 
 191.20 0.2964      9.50  59.95 
 191.40 0.2957      9.34  61.06 
 191.60 0.2957      9.34  62.65 
 191.80 0.2957      9.34  64.71 
 192.00 0.2957      9.18  67.09 
 192.20 0.2957      9.18  68.99 
 192.40 0.2957      9.18  70.26 
 192.60 0.2951      9.18  71.06 
 192.80 0.2951      9.18  71.37 
 193.00 0.2951      9.18  71.22 
 193.20 0.2951      8.87  70.58 
 193.40 0.2951      8.87  70.10 
 193.60 0.2951      8.87  69.63 
 193.80 0.2951      8.87  69.31 
 194.00 0.2951      8.71  69.15 
 194.20 0.2951      8.87  69.79 
 194.40 0.2951      8.87  70.74 
 194.60 0.2951      8.87  71.37 
 194.80 0.2951      8.87  71.69 
 195.00 0.2951      9.02  70.90 
 195.20 0.2951      9.18  69.31 
 195.40 0.2951      9.18  68.04 
 195.60 0.2951      9.18  66.77 
 195.80 0.2951      9.18  65.66 
 196.00 0.2951      9.18  65.19 
 196.20 0.2951      9.18  64.55 
 196.40 0.2951      9.18  64.23 
 196.60 0.2951      9.18  63.76 
 196.80 0.2951      9.34  63.44 
 197.00 0.2951      9.50  62.97 
 197.20 0.2951      9.50  62.49 
 197.40 0.2951      9.66  61.70 
 197.60 0.2951      9.82  61.22 
 197.80 0.2957     10.14  60.90 
 198.00 0.2964     10.29  61.06 
 198.20 0.2970     10.45  61.38 
 198.40 0.2976     10.61  62.17 
 198.60 0.2983     10.77  63.12 
 198.80 0.2989     10.93  64.08 
 199.00 0.2989     11.09  65.03 
 199.20 0.2970     10.93  65.98 
 199.40 0.2957     10.77  66.61 
 199.60 0.2951     10.61  67.09 
 199.80 0.2957     10.45  67.25 
 200.00 0.2957     10.61  66.93 
 200.20 0.2964     10.77  65.98 
 200.40 0.2970     10.77  65.19 
 200.60 0.2976     10.93  65.03 
 200.80 0.2970     11.25  65.19 
 201.00 0.2964     11.40  65.66 
 201.20 0.2945     11.56  66.46 
 201.40 0.2945     11.72  66.61 
 201.60 0.2945     11.72  66.61 
 201.80 0.2945     11.72  66.46 
 202.00 0.2945     11.72  66.14 
 202.20 0.2945     11.72  65.35 
 202.40 0.2951     11.72  64.55 
 202.60 0.2957     11.40  63.60 
 202.80 0.2964     11.40  62.81 
 203.00 0.2970     11.40  62.01 
 203.20 0.2976     11.25  61.38 
 203.40 0.2983     11.09  60.90 
 203.60 0.2983     11.09  60.74 
 203.80 0.2976     10.77  60.59 
 204.00 0.2964     10.77  61.22 
 204.20 0.2951     10.61  61.70 
 204.40 0.2938     10.45  62.01 
 204.60 0.2938     10.45  62.17 
 204.80 0.2938     10.29  62.17 
 205.00 0.2945     10.29  62.49 
 205.20 0.2951     10.29  63.12 
 205.40 0.2957     10.29  63.76 
 205.60 0.2970     10.29  64.23 
 205.80 0.2970     10.29  64.55 
 206.00 0.2970     10.29  64.55 
 206.20 0.2976     10.29  64.55 
 206.40 0.2983     10.29  64.55 
 206.60 0.2989     10.29  64.23 
 206.80 0.2989     10.29  63.76 
 207.00 0.2995     10.29  63.12 
 207.20 0.3008     10.29  62.01 
 207.40 0.3033     10.29  60.74 
 207.60 0.3046     10.29  59.16 
 207.80 0.3021     10.29  57.41 
 208.00 0.3008     10.29  55.51 
 208.20 0.3021     10.29  52.97 
 208.40 0.3078     10.29  50.43 
 208.60 0.3173     10.29  47.74 
 208.80 0.3230     10.29  44.88 
 209.00 0.3230     10.45  42.50 
 209.20 0.3268     10.61  40.44 
 209.40 0.3338     10.61  38.85 
 209.60 0.3129     10.77  37.74 
 209.80 0.3008     10.93  36.47 
 210.00 0.2964     10.93  35.52 
 210.20 0.2951     10.93  34.88 
 210.40 0.2951     10.93  34.41 
 210.60 0.2951     10.93  34.25 
 210.80 0.2951     10.61  34.25 
 211.00 0.2951     10.61  34.41 
 211.20 0.2951     10.29  34.57 
 211.40 0.2945     10.14  35.20 
 211.60 0.2945      9.98  35.99 
 211.80 0.2945      9.98  36.95 
 212.00 0.2945      9.82  38.06 
 212.20 0.2945      9.66  39.17 
 212.40 0.2938      9.66  40.12 
 212.60 0.2945      9.66  40.75 
 212.80 0.2945      9.66  41.07 
 213.00 0.2945      9.66  40.75 
 213.20 0.2951      9.66  40.28 
 213.40 0.2951      9.66  39.49 
 213.60 0.2951      9.66  38.53 
 213.80 0.2970      9.66  37.74 
 214.00 0.3008      9.66  37.42 
 214.20 0.3078      9.66  37.42 
 214.40 0.3173      9.82  38.06 
 214.60 0.3275      9.82  39.17 
 214.80 0.3414      9.98  40.60 
 215.00 0.3141      9.98  42.18 
 215.20 0.2957      9.98  43.45 
 215.40 0.3072      9.98  44.40 
 215.60 0.3186      9.82  44.56 
 215.80 0.3135      9.82  44.24 
 216.00 0.3021      9.66  43.93 
 216.20 0.3097      9.66  44.40 
 216.40 0.3103      9.66  45.67 
 216.60 0.3002      9.98  47.42 
 216.80 0.2964      9.98  49.00 
 217.00 0.2951      9.98  50.59 
 217.20 0.2951      9.98  52.18 
 217.40 0.2957      9.98  53.61 
 217.60 0.2957      9.98  55.03 
 217.80 0.2957      9.98  56.14 
 218.00 0.2957      9.98  56.94 
 218.20 0.2957      9.98  57.25 
 218.40 0.2957      9.98  57.25 
 218.60 0.2957      9.98  56.94 
 218.80 0.2964      9.98  56.46 
 219.00 0.2964      9.98  55.67 
 219.20 0.2964      9.98  54.72 
