~Version information
  VERS.                            1.20: CWLS LAS  -  VERSION 1.20
  WRAP.                              NO: One line per depth step
~Well information
# MNEM.UNIT
# ====.=========== ====================:===================
  STRT.M                          25.00: First depth in file
  STOP.M                         410.00: Last depth in file
  STEP.M                           0.20: Depth increment
  NULL.                           -9999: Null values
  WELL.                            WELL: 5ALS
  UWI .                  UNIQUE WELL ID: 5 ALS
  FLD .                           FIELD: SHkapovskaja-JEKS
  LOC .                        LOCATION:
  CNTY.                          COUNTY:
  STAT.                           STATE: Bashkortostan
  CTRY.                         COUNTRY: Rossija
  SRVC.                 SERVICE COMPANY: SHkapovskaja PGJE
  DATE.                        LOG DATE: 22.05.2006
  API .                      API NUMBER:
~Parameter information block
# MNEM.UNIT
# ====.================================:===================
  DTVR.               25.05.1960 00:00 : Data i vremja zamera krivoi'
  DTIS.                     25.05.1960 : Data okonchanija issledovanii'
  SPMS.                  ocifr.analog. : Sposob poluch cifrovogo massiva
  OCFR.                         skaner : Ustroi'stvo ocifrovki
  PRHJ.                 otkrytyi' stvol : Uslovija prohojdenija pribora
  DNOM.MM                          298 : Nominal'nyi' diametr skvajiny
  MSHGL.                            500 : Masshtab glubin karotajnoi' diagrammy
  TKRV.                            ISH : Tip krivoi' po sposobu preobrazovanija
#~Other information
# ------------------------- REMARKS  AREA ------------------
~Curve information
# MNEM.UNIT
# ====.================================:===================
 DEPT .M                              : Depth curve
 DS   .M                              : Kavernogramma
 PZ   .OMM                            : Potencial-zond
 PS   .MV                             : PS
~ASCII Log Data
# ...
 316.60 0.2894     81.05  56.47 
 316.80 0.2894     80.10  56.41 
 317.00 0.2894     79.47  56.31 
 317.20 0.2894     78.83  56.30 
 317.40 0.2900     78.04  56.30 
 317.60 0.2900     77.40  56.30 
 317.80 0.2900     76.61  56.30 
 318.00 0.2900     75.66  56.30 
 318.20 0.2907     75.02  56.18 
 318.40 0.2907     74.23  56.09 
 318.60 0.2913     73.44  56.00 
 318.80 0.2919     72.64  55.99 
 319.00 0.2919     71.69  55.99 
 319.20 0.2926     70.58  55.99 
 319.40 0.2926     69.79  55.98 
 319.60 0.2926     68.84  55.98 
 319.80 0.2932     68.04  55.91 
 320.00 0.2932     67.09  55.92 
 320.20 0.2932     65.98  55.84 
 320.40 0.2932     65.19  55.83 
 320.60 0.2932     64.23  55.83 
 320.80 0.2932     63.60  55.83 
 321.00 0.2932     62.81  55.83 
 321.20 0.2932     62.01  55.83 
 321.40 0.2932     61.54  55.83 
 321.60 0.2932     61.06  55.83 
 321.80 0.2938     60.27  55.83 
 322.00 0.2938     59.63  55.83 
 322.20 0.2945     59.00  55.83 
 322.40 0.2945     58.36  55.83 
 322.60 0.2945     57.73  55.70 
 322.80 0.2945     56.94  55.67 
 323.00 0.2945     56.14  55.67 
 323.20 0.2938     55.35  55.67 
 323.40 0.2938     54.40  55.67 
 323.60 0.2938     53.29  55.67 
 323.80 0.2938     52.02  55.67 
 324.00 0.2938     50.75  55.67 
 324.20 0.2932     49.80  55.67 
 324.40 0.2932     48.53  55.67 
 324.60 0.2932     47.42  55.67 
 324.80 0.2932     46.47  55.67 
 325.00 0.2926     45.51  55.67 
 325.20 0.2926     44.88  55.67 
 325.40 0.2932     44.09  55.67 
 325.60 0.2932     43.29  55.67 
 325.80 0.2932     42.82  55.67 
 326.00 0.2926     42.02  55.67 
 326.20 0.2926     41.55  55.67 
 326.40 0.2926     41.07  55.67 
 326.60 0.2926     40.60  55.67 
 326.80 0.2926     40.12  55.67 
 327.00 0.2926     39.64  55.67 
 327.20 0.2926     39.01  55.67 
 327.40 0.2919     38.53  55.72 
 327.60 0.2919     38.06  55.99 
 327.80 0.2926     37.58  56.13 
 328.00 0.2926     37.11  56.14 
 328.20 0.2926     36.63  56.14 
 328.40 0.2926     36.15  55.97 
 328.60 0.2919     35.52  55.84 
 328.80 0.2919     35.20  55.83 
 329.00 0.2919     34.73  55.77 
 329.20 0.2919     34.25  55.56 
 329.40 0.2919     33.93  55.51 
 329.60 0.2919     33.62  55.51 
 329.80 0.2919     33.46  55.46 
 330.00 0.2919     33.14  55.24 
 330.20 0.2919     32.98  55.20 
 330.40 0.2919     32.66  55.19 
 330.60 0.2919     32.66  55.02 
 330.80 0.2919     32.35  54.94 
 331.00 0.2926     32.35  54.90 
 331.20 0.2926     32.03  54.82 
 331.40 0.2926     32.03  54.60 
 331.60 0.2926     31.87  54.56 
 331.80 0.2926     31.71  54.50 
 332.00 0.2932     31.55  54.29 
 332.20 0.2932     31.39  54.24 
 332.40 0.2932     31.08  54.24 
 332.60 0.2932     30.92  54.06 
 332.80 0.2932     30.76  53.94 
 333.00 0.2932     30.44  53.87 
 333.20 0.2932     30.44  53.65 
 333.40 0.2932     30.44  53.49 
 333.60 0.2932     30.12  53.33 
 333.80 0.2938     30.12  53.17 
 334.00 0.2938     29.81  53.01 
 334.20 0.2938     29.81  52.92 
 334.40 0.2938     29.49  52.70 
 334.60 0.2938     29.33  52.66 
 334.80 0.2938     29.17  52.53 
 335.00 0.2938     28.86  52.38 
 335.20 0.2938     28.70  52.34 
 335.40 0.2938     28.06  52.34 
 335.60 0.2938     27.75  52.28 
 335.80 0.2938     27.43  52.19 
 336.00 0.2938     26.95  52.06 
 336.20 0.2945     26.79  52.02 
 336.40 0.2945     26.32  51.90 
 336.60 0.2945     26.00  51.74 
 336.80 0.2951     25.52  51.58 
 337.00 0.2951     25.21  51.55 
 337.20 0.2951     24.57  51.54 
 337.40 0.2951     23.78  51.54 
 337.60 0.2957     23.14  51.54 
 337.80 0.2957     22.51  51.54 
 338.00 0.2957     22.03  51.42 
 338.20 0.2957     21.40  51.51 
 338.40 0.2957     20.92  51.49 
 338.60 0.2957     20.29  51.45 
 338.80 0.2964     19.81  51.53 
 339.00 0.2964     19.34  51.59 
 339.20 0.2964     18.86  51.81 
 339.40 0.2970     18.38  51.98 
 339.60 0.2964     18.07  52.19 
 339.80 0.2964     18.07  52.50 
 340.00 0.2970     17.91  52.69 
 340.20 0.2964     18.07  52.97 
 340.40 0.2970     18.23  53.22 
 340.60 0.2970     18.38  53.60 
 340.80 0.2970     19.02  53.99 
 341.00 0.2970     19.81  54.42 
 341.20 0.2970     21.08  54.74 
 341.40 0.2970     22.19  55.04 
 341.60 0.2970     23.46  55.35 
 341.80 0.2970     24.89  55.67 
 342.00 0.2970     26.00  55.93 
 342.20 0.2970     26.95  56.16 
 342.40 0.2970     27.75  56.41 
 342.60 0.2970     28.38  56.63 
 342.80 0.2970     28.86  56.76 
 343.00 0.2970     29.65  56.95 
 343.20 0.2970     30.28  57.08 
 343.40 0.2970     30.92  57.27 
 343.60 0.2970     31.55  57.45 
 343.80 0.2964     32.19  57.68 
 344.00 0.2964     32.66  57.78 
 344.20 0.2964     33.14  58.00 
 344.40 0.2964     33.77  58.10 
 344.60 0.2964     34.57  58.32 
 344.80 0.2957     35.20  58.41 
 345.00 0.2957     35.99  58.51 
 345.20 0.2957     36.95  58.65 
 345.40 0.2957     37.90  58.68 
 345.60 0.2951     38.69  58.86 
 345.80 0.2957     39.49  58.98 
 346.00 0.2957     40.44  59.00 
 346.20 0.2951     41.39  59.00 
 346.40 0.2951     42.50  59.00 
 346.60 0.2951     43.77  59.00 
 346.80 0.2951     44.72  58.88 
 347.00 0.2951     45.67  58.72 
 347.20 0.2945     46.78  58.63 
 347.40 0.2945     47.74  58.48 
 347.60 0.2945     48.69  58.38 
 347.80 0.2945     49.48  58.24 
 348.00 0.2938     50.43  58.03 
 348.20 0.2938     51.07  57.85 
 348.40 0.2932     52.02  57.62 
 348.60 0.2932     52.97  57.52 
 348.80 0.2932     53.92  57.43 
 349.00 0.2926     54.56  57.29 
 349.20 0.2926     55.51  57.13 
 349.40 0.2919     56.46  57.05 
 349.60 0.2913     56.94  56.95 
 349.80 0.2913     58.05  56.81 
 350.00 0.2913     58.84  56.66 
 350.20 0.2913     59.63  56.62 
 350.40 0.2913     60.11  56.50 
 350.60 0.2907     60.59  56.34 
 350.80 0.2907     61.22  56.25 
 351.00 0.2907     61.85  56.16 
 351.20 0.2900     62.49  56.02 
 351.40 0.2907     63.44  55.87 
 351.60 0.2913     64.08  55.78 
 351.80 0.2926     65.19  55.68 
 352.00 0.2951     65.98  55.55 
 352.20 0.3027     66.61  55.46 
 352.40 0.3217     67.09  55.31 
 352.60 0.3503     67.41  55.20 
 352.80 0.3757     67.41  55.08 
 353.00 0.3795     67.09  54.98 
 353.20 0.3877     66.77  54.83 
 353.40 0.3846     65.98  54.74 
 353.60 0.3776     64.87  54.72 
 353.80 0.3693     63.76  54.70 
 354.00 0.3608     62.49  54.60 
 354.20 0.3992     61.06  54.57 
 354.40 0.3953     59.79  54.56 
 354.60 0.3966     58.36  54.49 
 354.80 0.3993     57.10  54.42 
 355.00 0.4015     55.98  54.40 
 355.20 0.4032     54.87  54.33 
 355.40 0.3814     54.40  54.26 
 355.60 0.3649     53.61  54.24 
 355.80 0.3585     52.34  54.22 
 356.00 0.3808     51.38  54.13 
 356.20 0.3693     50.59  54.09 
 356.40 0.3560     49.48  54.06 
 356.60 0.3427     48.37  53.97 
 356.80 0.3382     46.94  53.93 
 357.00 0.3535     45.51  53.92 
 357.20 0.3382     43.77  53.86 
 357.40 0.3598     42.02  53.78 
 357.60 0.3782     40.60  53.77 
 357.80 0.3801     39.01  53.75 
 358.00 0.3391     37.26  53.65 
 358.20 0.3788     35.36  53.61 
 358.40 0.3928     33.14  53.59 
 358.60 0.3776     31.08  53.49 
 358.80 0.3782     29.17  53.46 
 359.00 0.3941     27.90  53.45 
 359.20 0.3636     27.27  53.45 
 359.40 0.3389     26.79  53.45 
 359.60 0.3167     26.32  53.43 
 359.80 0.3662     26.16  53.24 
 360.00 0.3712     25.68  53.18 
 360.20 0.3763     25.52  53.26 
 360.40 0.3440     25.52  53.17 
 360.60 0.3382     25.37  53.14 
 360.80 0.3668     25.37  53.13 
 361.00 0.3382     25.37  53.13 
 361.20 0.3110     25.37  53.13 
 361.40 0.3446     25.52  53.13 
 361.60 0.3611     25.37  53.13 
 361.80 0.3541     25.52  53.13 
 362.00 0.3585     25.52  53.13 
 362.20 0.3643     25.68  53.13 
 362.40 0.3643     25.84  53.13 
 362.60 0.3617     25.84  53.19 
 362.80 0.3630     25.84  53.25 
 363.00 0.3649     26.16  53.26 
 363.20 0.3624     26.16  53.39 
 363.40 0.3579     26.32  53.44 
 363.60 0.3509     26.48  53.44 
 363.80 0.3440     26.48  53.45 
 364.00 0.3382     26.48  53.45 
 364.20 0.3395     26.48  53.45 
 364.40 0.3509     26.63  53.45 
 364.60 0.3592     26.79  53.45 
 364.80 0.3636     26.95  53.45 
 365.00 0.3649     27.11  53.45 
