~Version information
  VERS.                            1.20: CWLS LAS  -  VERSION 1.20
  WRAP.                              NO: One line per depth step
~Well information
# MNEM.UNIT
# ====.=========== ====================:===================
  STRT.M                          25.00: First depth in file
  STOP.M                         410.00: Last depth in file
  STEP.M                           0.20: Depth increment
  NULL.                           -9999: Null values
  WELL.                            WELL: 5ALS
  UWI .                  UNIQUE WELL ID: 5 ALS
  FLD .                           FIELD: SHkapovskaja-JEKS
  LOC .                        LOCATION:
  CNTY.                          COUNTY:
  STAT.                           STATE: Bashkortostan
  CTRY.                         COUNTRY: Rossija
  SRVC.                 SERVICE COMPANY: SHkapovskaja PGJE
  DATE.                        LOG DATE: 22.05.2006
  API .                      API NUMBER:
~Parameter information block
# MNEM.UNIT
# ====.================================:===================
  DTVR.               25.05.1960 00:00 : Data i vremja zamera krivoi'
  DTIS.                     25.05.1960 : Data okonchanija issledovanii'
  SPMS.                  ocifr.analog. : Sposob poluch cifrovogo massiva
  OCFR.                         skaner : Ustroi'stvo ocifrovki
  PRHJ.                 otkrytyi' stvol : Uslovija prohojdenija pribora
  DNOM.MM                          298 : Nominal'nyi' diametr skvajiny
  MSHGL.                            500 : Masshtab glubin karotajnoi' diagrammy
  TKRV.                            ISH : Tip krivoi' po sposobu preobrazovanija
#~Other information
# ------------------------- REMARKS  AREA ------------------
~Curve information
# MNEM.UNIT
# ====.================================:===================
 DEPT .M                              : Depth curve
 DS   .M                              : Kavernogramma
 PZ   .OMM                            : Potencial-zond
 PS   .MV                             : PS
~ASCII Log Data
# ...
 365.20 0.3655     27.11  53.45 
 365.40 0.3662     27.11  53.45 
 365.60 0.3662     27.27  53.45 
 365.80 0.3662     27.43  53.45 
 366.00 0.3662     27.43  53.62 
 366.20 0.3668     27.43  53.75 
 366.40 0.3617     27.43  53.76 
 366.60 0.3459     27.43  53.76 
 366.80 0.3440     27.59  53.76 
 367.00 0.3611     27.75  53.76 
 367.20 0.3408     27.75  53.76 
 367.40 0.3262     27.75  53.76 
 367.60 0.3446     27.75  53.76 
 367.80 0.3547     27.75  53.76 
 368.00 0.3604     27.75  53.64 
 368.20 0.3592     27.75  53.73 
 368.40 0.3585     27.75  53.69 
 368.60 0.3585     27.75  53.70 
 368.80 0.3598     27.75  53.67 
 369.00 0.3604     27.75  53.70 
 369.20 0.3611     27.75  53.55 
 369.40 0.3624     27.75  53.48 
 369.60 0.3643     27.75  53.45 
 369.80 0.3662     28.06  53.45 
 370.00 0.3662     28.06  53.45 
 370.20 0.3547     28.38  53.45 
 370.40 0.3338     28.38  53.45 
 370.60 0.3173     28.38  53.45 
 370.80 0.3522     28.54  53.45 
 371.00 0.3643     28.38  53.50 
 371.20 0.3643     28.70  53.72 
 371.40 0.3643     28.70  53.81 
 371.60 0.3649     28.70  53.92 
 371.80 0.3611     28.70  54.03 
 372.00 0.3541     28.70  54.09 
 372.20 0.3459     28.70  54.19 
 372.40 0.3395     28.70  54.23 
 372.60 0.3408     28.70  54.27 
 372.80 0.3509     28.70  54.55 
 373.00 0.3617     28.86  54.37 
 373.20 0.3459     29.01  54.37 
 373.40 0.3363     29.01  54.39 
 373.60 0.3478     29.17  54.40 
 373.80 0.3528     29.33  54.40 
 374.00 0.3528     29.65  54.40 
 374.20 0.3497     29.65  54.40 
 374.40 0.3471     29.65  54.40 
 374.60 0.3503     29.65  54.45 
 374.80 0.3503     29.65  54.55 
 375.00 0.3471     29.65  54.49 
 375.20 0.3509     29.65  54.67 
 375.40 0.3427     29.65  54.71 
 375.60 0.3370     29.81  54.72 
 375.80 0.3313     29.97  54.72 
 376.00 0.3294     30.12  54.77 
 376.20 0.3363     30.28  54.99 
 376.40 0.3427     30.28  55.03 
 376.60 0.3401     30.28  55.03 
 376.80 0.3414     30.28  55.03 
 377.00 0.3446     30.28  55.03 
 377.20 0.3465     30.28  54.91 
 377.40 0.3471     30.28  54.88 
 377.60 0.3471     30.44  54.87 
 377.80 0.3465     30.44  54.87 
 378.00 0.3459     30.44  54.87 
 378.20 0.3459     30.60  54.87 
 378.40 0.3452     30.60  54.87 
 378.60 0.3446     30.76  54.87 
 378.80 0.3446     30.76  54.75 
 379.00 0.3452     30.76  54.60 
 379.20 0.3478     30.76  54.56 
 379.40 0.3503     30.76  54.56 
 379.60 0.3522     30.76  54.56 
 379.80 0.3509     31.08  54.50 
 380.00 0.3497     31.08  54.29 
 380.20 0.3490     31.08  54.42 
 380.40 0.3490     31.24  54.54 
 380.60 0.3497     31.39  54.56 
 380.80 0.3497     31.39  54.56 
 381.00 0.3503     31.39  54.61 
 381.20 0.3503     31.39  54.70 
 381.40 0.3509     31.08  54.84 
 381.60 0.3509     31.08  54.87 
 381.80 0.3503     31.08  54.93 
 382.00 0.3503     31.08  55.07 
 382.20 0.3503     31.08  55.18 
 382.40 0.3490     31.08  55.24 
 382.60 0.3446     30.76  55.46 
 382.80 0.3376     30.76  55.50 
 383.00 0.3478     30.76  55.51 
 383.20 0.3408     30.76  55.63 
 383.40 0.3370     30.76  55.79 
 383.60 0.3420     30.60  55.70 
 383.80 0.3459     30.60  55.74 
 384.00 0.3484     30.60  55.75 
 384.20 0.3497     30.60  55.73 
 384.40 0.3484     30.44  55.64 
 384.60 0.3440     30.44  55.52 
 384.80 0.3395     30.60  55.51 
 385.00 0.3401     30.76  55.51 
 385.20 0.3420     30.76  55.51 
 385.40 0.3382     30.76  55.39 
 385.60 0.3440     30.92  55.42 
 385.80 0.3440     31.08  55.36 
 386.00 0.3414     31.24  55.23 
 386.20 0.3408     31.39  55.25 
 386.40 0.3414     31.39  55.22 
 386.60 0.3408     31.39  55.19 
 386.80 0.3351     31.71  55.19 
 387.00 0.3256     31.55  55.17 
 387.20 0.3243     31.71  55.21 
 387.40 0.3332     31.71  55.19 
 387.60 0.3294     31.71  55.19 
 387.80 0.3211     31.71  55.19 
 388.00 0.3211     31.71  55.19 
 388.20 0.3300     31.71  55.19 
 388.40 0.3376     31.71  55.19 
 388.60 0.3420     31.71  55.19 
 388.80 0.3408     31.87  55.19 
 389.00 0.3395     32.03  55.12 
 389.20 0.3401     32.03  55.18 
 389.40 0.3414     32.03  55.19 
 389.60 0.3414     32.03  55.19 
 389.80 0.3408     32.03  55.14 
 390.00 0.3414     32.03  55.17 
 390.20 0.3420     32.19  55.19 
 390.40 0.3414     32.35  55.19 
 390.60 0.3401     32.35  55.19 
 390.80 0.3344     32.35  55.19 
 391.00 0.3262     32.50  55.19 
 391.20 0.3256     32.66  55.19 
 391.40 0.3363     32.50  55.19 
 391.60 0.3198     32.35  55.19 
 391.80 0.3103     32.35  55.19 
 392.00 0.3059     32.35  55.32 
 392.20  -9999     32.50  55.28 
 392.40  -9999     32.50  55.39 
 392.60  -9999     32.66  55.50 
 392.80  -9999     32.66  55.45 
 393.00  -9999     32.50  55.49 
 393.20  -9999     32.35  55.51 
 393.40  -9999     32.35  55.56 
 393.60  -9999     32.35  55.66 
 393.80  -9999     32.35  55.67 
 394.00  -9999     32.35  55.72 
 394.20  -9999     32.35  55.81 
 394.40  -9999     32.40  55.83 
 394.60  -9999     32.62  55.83 
 394.80  -9999     32.66  55.83 
 395.00  -9999     32.72  55.83 
 395.20  -9999     32.86  55.83 
 395.40  -9999     32.97  55.83 
 395.60  -9999     32.98  55.83 
 395.80  -9999     33.10  55.83 
 396.00  -9999     33.24  55.88 
 396.20  -9999     33.26  55.97 
 396.40  -9999     33.15  55.98 
 396.60  -9999     33.14  55.98 
 396.80  -9999     33.14  55.98 
 397.00  -9999     33.19  55.98 
 397.20  -9999     33.29  55.81 
 397.40  -9999     33.42  55.68 
 397.60  -9999     33.45  55.67 
 397.80  -9999     33.46  55.67 
 398.00  -9999     33.40  55.67 
 398.20  -9999     33.19  55.67 
 398.40  -9999     33.14  55.67 
 398.60  -9999     33.14  55.67 
 398.80  -9999     33.14  55.67 
 399.00  -9999     33.14  55.67 
 399.20  -9999     33.14  55.67 
 399.40  -9999     33.14  55.67 
 399.60  -9999     33.14  55.67 
 399.80  -9999     33.19  55.67 
 400.00  -9999     33.41  55.67 
 400.20  -9999     33.45  55.67 
 400.40  -9999     33.46  55.67 
 400.60  -9999     33.51  55.67 
 400.80  -9999     33.66  55.67 
 401.00  -9999     33.76  55.67 
 401.20  -9999     33.77  55.67 
 401.40  -9999     33.95  55.67 
 401.60  -9999     34.08  55.72 
 401.80  -9999     34.09  55.94 
 402.00  -9999     34.14  56.10 
 402.20  -9999     34.19  56.26 
 402.40  -9999     34.28  56.42 
 402.60  -9999     34.39  56.58 
 402.80  -9999     34.41  56.62 
 403.00  -9999     34.58  56.62 
 403.20  -9999     34.71  -9999 
 403.40  -9999     34.72  -9999 
 403.60  -9999     34.73  -9999 
 403.80  -9999     34.73  -9999 
 404.00  -9999     34.67  -9999 
 404.20  -9999     34.58  -9999 
 404.40  -9999     34.69  -9999 
 404.60  -9999     34.79  -9999 
 404.80  -9999     34.91  -9999 
 405.00  -9999     35.01  -9999 
 405.20  -9999     35.06  -9999 
 405.40  -9999     35.22  -9999 
 405.60  -9999     35.52  -9999 
 405.80  -9999     35.66  -9999 
 406.00  -9999     35.85  -9999 
 406.20  -9999     35.98  -9999 
 406.40  -9999     36.17  -9999 
 406.60  -9999     36.30  -9999 
 406.80  -9999     36.31  -9999 
 407.00  -9999     36.31  -9999 
 407.20  -9999     36.31  -9999 
 407.40  -9999     36.31  -9999 
 407.60  -9999     36.31  -9999 
 407.80  -9999     36.31  -9999 
 408.00  -9999     36.37  -9999 
 408.20  -9999     36.58  -9999 
 408.40  -9999     36.62  -9999 
 408.60  -9999     36.63  -9999 
 408.80  -9999     36.51  -9999 
 409.00  -9999     36.47  -9999 
 409.20  -9999     -9999  -9999 
 409.40  -9999     -9999  -9999 
 409.60  -9999     -9999  -9999 
 409.80  -9999     -9999  -9999 
 410.00  -9999     -9999  -9999 
