~Version information
  VERS.                            1.20: CWLS LAS  -  VERSION 1.20
  WRAP.                              NO: One line per depth step
~Well information
# MNEM.UNIT
# ====.=========== ====================:===================
  STRT.M                          25.00: First depth in file
  STOP.M                         410.00: Last depth in file
  STEP.M                           0.20: Depth increment
  NULL.                           -9999: Null values
  WELL.                            WELL: 5ALS
  UWI .                  UNIQUE WELL ID: 5 ALS
  FLD .                           FIELD: SHkapovskaja-JEKS
  LOC .                        LOCATION:
  CNTY.                          COUNTY:
  STAT.                           STATE: Bashkortostan
  CTRY.                         COUNTRY: Rossija
  SRVC.                 SERVICE COMPANY: SHkapovskaja PGJE
  DATE.                        LOG DATE: 22.05.2006
  API .                      API NUMBER:
~Parameter information block
# MNEM.UNIT
# ====.================================:===================
  DTVR.               25.05.1960 00:00 : Data i vremja zamera krivoi'
  DTIS.                     25.05.1960 : Data okonchanija issledovanii'
  SPMS.                  ocifr.analog. : Sposob poluch cifrovogo massiva
  OCFR.                         skaner : Ustroi'stvo ocifrovki
  PRHJ.                 otkrytyi' stvol : Uslovija prohojdenija pribora
  DNOM.MM                          298 : Nominal'nyi' diametr skvajiny
  MSHGL.                            500 : Masshtab glubin karotajnoi' diagrammy
  TKRV.                            ISH : Tip krivoi' po sposobu preobrazovanija
#~Other information
# ------------------------- REMARKS  AREA ------------------
~Curve information
# MNEM.UNIT
# ====.================================:===================
 DEPT .M                              : Depth curve
 DS   .M                              : Kavernogramma
 PZ   .OMM                            : Potencial-zond
 PS   .MV                             : PS
~ASCII Log Data
# ...
 122.20 0.2976     11.09  57.54 
 122.40 0.2976     11.09  57.13 
 122.60 0.2976     11.09  56.78 
 122.80 0.2976     11.09  56.41 
 123.00 0.2976     11.25  56.00 
 123.20 0.2976     11.25  55.62 
 123.40 0.2976     11.25  55.20 
 123.60 0.2976     11.25  54.93 
 123.80 0.2976     11.40  54.70 
 124.00 0.2976     11.40  54.40 
 124.20 0.2976     11.25  54.20 
 124.40 0.2970     11.25  54.15 
 124.60 0.2970     11.40  54.23 
 124.80 0.2970     11.40  54.24 
 125.00 0.2964     11.40  54.24 
 125.20 0.2964     11.25  54.24 
 125.40 0.2964     11.25  54.24 
 125.60 0.2964     11.25  54.08 
 125.80 0.2964     11.09  54.08 
 126.00 0.2957     11.09  53.92 
 126.20 0.2964     11.09  53.76 
 126.40 0.2964     10.93  53.61 
 126.60 0.2964     10.93  53.61 
 126.80 0.2957     10.93  53.45 
 127.00 0.2964     10.61  53.13 
 127.20 0.2964     10.61  52.81 
 127.40 0.2964     10.45  52.81 
 127.60 0.2964     10.29  52.65 
 127.80 0.2964     10.29  52.55 
 128.00 0.2957     10.29  52.68 
 128.20 0.2957     10.29  52.80 
 128.40 0.2957     10.61  52.86 
 128.60 0.2957     10.61  53.08 
 128.80 0.2957     10.61  53.23 
 129.00 0.2957     10.61  53.42 
 129.20 0.2951     10.77  53.62 
 129.40 0.2951     10.93  53.80 
 129.60 0.2951     11.25  54.03 
 129.80 0.2951     11.25  54.30 
 130.00 0.2951     11.40  54.65 
 130.20 0.2951     11.56  54.81 
 130.40 0.2951     11.72  55.19 
 130.60 0.2951     11.88  55.63 
 130.80 0.2951     11.88  56.16 
 131.00 0.2951     12.04  56.78 
 131.20 0.2951     12.20  57.29 
 131.40 0.2951     12.20  57.77 
 131.60 0.2951     12.20  58.07 
 131.80 0.2951     12.36  58.38 
 132.00 0.2951     12.20  58.31 
 132.20 0.2945     12.20  58.22 
 132.40 0.2945     12.20  58.15 
 132.60 0.2945     12.20  57.88 
 132.80 0.2945     12.20  57.62 
 133.00 0.2945     12.20  57.40 
 133.20 0.2945     12.36  57.27 
 133.40 0.2951     12.51  57.26 
 133.60 0.2951     12.51  57.25 
 133.80 0.2951     12.67  57.25 
 134.00 0.2951     12.83  57.43 
 134.20 0.2951     12.83  57.61 
 134.40 0.2951     12.99  57.84 
 134.60 0.2951     13.15  58.06 
 134.80 0.2951     13.15  58.19 
 135.00 0.2951     13.15  58.26 
 135.20 0.2951     13.47  58.48 
 135.40 0.2951     13.47  58.57 
 135.60 0.2945     13.47  58.79 
 135.80 0.2945     13.78  58.71 
 136.00 0.2945     13.78  58.56 
 136.20 0.2945     13.78  58.35 
 136.40 0.2945     13.78  58.17 
 136.60 0.2945     13.78  57.94 
 136.80 0.2945     13.78  57.72 
 137.00 0.2945     13.94  57.53 
 137.20 0.2945     14.10  57.30 
 137.40 0.2938     14.10  56.96 
 137.60 0.2938     13.94  56.62 
 137.80 0.2938     13.94  56.43 
 138.00 0.2938     13.94  56.14 
 138.20 0.2938     13.78  55.77 
 138.40 0.2932     13.78  55.41 
 138.60 0.2932     13.78  55.11 
 138.80 0.2932     13.63  54.69 
 139.00 0.2932     13.47  54.20 
 139.20 0.2932     13.47  53.72 
 139.40 0.2932     13.15  53.30 
 139.60 0.2932     12.99  52.90 
 139.80 0.2926     12.83  52.52 
 140.00 0.2926     12.83  52.18 
 140.20 0.2926     12.51  51.81 
 140.40 0.2926     12.36  51.59 
 140.60 0.2926     12.20  51.21 
 140.80 0.2932     12.20  50.64 
 141.00 0.2932     12.20  50.14 
 141.20 0.2938     11.88  49.64 
 141.40 0.2945     11.88  48.98 
 141.60 0.2945     11.88  48.06 
 141.80 0.2951     11.88  46.92 
 142.00 0.2951     11.88  45.79 
 142.20 0.2957     11.88  44.73 
 142.40 0.2957     11.88  43.77 
 142.60 0.2957     11.88  42.76 
 142.80 0.2964     11.88  41.84 
 143.00 0.2964     11.88  40.68 
 143.20 0.2964     11.88  38.98 
 143.40 0.2964     11.56  36.93 
 143.60 0.2970     11.56  34.78 
 143.80 0.2970     11.56  32.70 
 144.00 0.2970     11.40  30.53 
 144.20 0.2970     11.25  28.06 
 144.40 0.2976     11.25  25.81 
 144.60 0.2976     11.25  24.16 
 144.80 0.2976     11.09  23.01 
 145.00 0.2976     10.93  22.04 
 145.20 0.2976     10.77  21.31 
 145.40 0.2976     10.61  20.81 
 145.60 0.2976     10.61  20.28 
 145.80 0.2983     10.45  19.83 
 146.00 0.2976     10.29  19.50 
 146.20 0.2976     10.14  19.18 
 146.40 0.2976      9.98  18.86 
 146.60 0.2976      9.98  18.67 
 146.80 0.2976      9.66  18.56 
 147.00 0.2976      9.66  18.55 
 147.20 0.2976      9.66  18.67 
 147.40 0.2983      9.66  19.05 
 147.60 0.2983      9.50  19.53 
 147.80 0.2983      9.34  20.19 
 148.00 0.2989      9.34  21.09 
 148.20 0.2989      9.34  22.09 
 148.40 0.2989      9.34  23.08 
 148.60 0.2989      9.34  23.95 
 148.80 0.2989      9.34  24.89 
 149.00 0.2989      9.34  25.67 
 149.20 0.2989      9.34  26.26 
 149.40 0.2989      9.50  26.75 
 149.60 0.2989      9.66  27.11 
 149.80 0.2989      9.66  27.43 
 150.00 0.2989      9.82  27.80 
 150.20 0.2989      9.82  28.56 
 150.40 0.2989      9.98  29.49 
 150.60 0.2989      9.98  30.12 
 150.80 0.2989      9.98  30.28 
 151.00 0.2983      9.98  30.60 
 151.20 0.2983      9.82  30.60 
 151.40 0.2983      9.66  30.76 
 151.60 0.2976      9.34  31.24 
 151.80 0.2976      9.02  32.19 
 152.00 0.2976      8.71  33.62 
 152.20 0.2976      8.71  35.36 
 152.40 0.2976      8.87  37.26 
 152.60 0.2970      9.02  39.49 
 152.80 0.2970      9.18  41.55 
 153.00 0.2970      9.34  43.77 
 153.20 0.2964      9.34  45.51 
 153.40 0.2957      9.34  47.58 
 153.60 0.2957      9.34  49.16 
 153.80 0.2957      9.50  50.91 
 154.00 0.2951      9.98  52.49 
 154.20 0.2951     10.29  54.08 
 154.40 0.2951     10.29  55.83 
 154.60 0.2945     10.14  57.41 
 154.80 0.2945      9.98  59.00 
 155.00 0.2945      9.82  60.43 
 155.20 0.2938      9.82  61.85 
 155.40 0.2938      9.98  63.44 
 155.60 0.2938     10.14  64.71 
 155.80 0.2938     10.29  65.66 
 156.00 0.2938     10.29  66.46 
 156.20 0.2938     10.14  66.77 
 156.40 0.2938      9.82  66.61 
 156.60 0.2938      9.66  66.14 
 156.80 0.2938      9.66  65.35 
 157.00 0.2938      9.82  64.55 
 157.20 0.2932      9.98  63.12 
 157.40 0.2938      9.98  61.70 
 157.60 0.2938     10.14  60.27 
 157.80 0.2938     10.29  59.32 
 158.00 0.2938     10.29  58.68 
 158.20 0.2945     10.29  58.36 
 158.40 0.2945     10.29  58.05 
 158.60 0.2951     10.29  57.89 
 158.80 0.2945     10.14  58.21 
 159.00 0.2951      9.98  59.16 
 159.20 0.2951      9.98  60.59 
 159.40 0.2951      9.98  61.85 
 159.60 0.2951      9.98  63.12 
 159.80 0.2951      9.82  65.19 
 160.00 0.2951      9.66  67.41 
 160.20 0.2951      9.66  69.31 
 160.40 0.2951      9.50  70.90 
 160.60 0.2951      9.34  71.85 
 160.80 0.2951      9.34  72.17 
 161.00 0.2951      9.66  71.69 
 161.20 0.2951      9.66  70.90 
 161.40 0.2951      9.66  69.47 
 161.60 0.2951      9.66  67.73 
 161.80 0.2951      9.82  66.14 
 162.00 0.2951      9.98  64.23 
 162.20 0.2951      9.98  62.17 
 162.40 0.2951     10.29  59.00 
 162.60 0.2957     10.45  56.14 
 162.80 0.2957     10.61  53.76 
 163.00 0.2957     10.61  51.70 
 163.20 0.2964     10.93  49.48 
 163.40 0.2964     10.93  47.42 
 163.60 0.2964     11.09  45.04 
 163.80 0.2964     11.25  42.50 
 164.00 0.2964     11.25  39.96 
 164.20 0.2964     11.09  38.22 
 164.40 0.2964     11.25  37.26 
 164.60 0.2964     11.25  36.47 
 164.80 0.2964     11.25  36.15 
 165.00 0.2964     11.25  36.15 
 165.20 0.2964     11.25  36.47 
 165.40 0.2957     11.25  37.26 
 165.60 0.2957     11.25  38.53 
 165.80 0.2957     11.25  40.28 
 166.00 0.2957     11.25  42.50 
 166.20 0.2957     11.25  45.67 
 166.40 0.2957     11.25  48.85 
 166.60 0.2951     11.09  51.54 
 166.80 0.2957     11.09  53.76 
 167.00 0.2957     11.09  55.67 
 167.20 0.2957     11.09  56.94 
 167.40 0.2964     10.93  57.57 
 167.60 0.2970     11.09  56.62 
 167.80 0.2976     11.25  55.98 
 168.00 0.2989     11.40  55.67 
 168.20 0.3002     11.56  55.67 
 168.40 0.3014     11.56  55.67 
 168.60 0.3014     11.40  55.67 
 168.80 0.3021     11.25  55.35 
 169.00 0.3014     11.25  54.87 
 169.20 0.3002     10.93  54.40 
 169.40 0.2989     10.93  53.61 
 169.60 0.2976     10.61  52.65 
 169.80 0.2976     10.29  51.86 
 170.00 0.2976     10.14  51.86 
 170.20 0.2976      9.98  52.49 
 170.40 0.2983      9.98  54.08 
 170.60 0.2989      9.66  56.30 
