~VERSION INFORMATION
 VERS. 2.0  : 
 WRAP. YES  :
~WELL INFORMATION
 LOC.X    :
 SRVC.X    :
 COMP.X    :
 WELL.X  100  :
 STOP.X  3220.00000000  :
 UWI.X  ccaf8416-11fb-4f20-a397-fdc46fcefdd8  :
 STRT.X  2736.00000000  :
 STEP.X  0.20000000  :
 API.X    :
 PROV.X    :
 DATE.X  Tuesday December 08 2009 10  :
 NULL.X  -999.250000  :
 FLD.X    :
~CURVE INFORMATION
 DEPTXXXX.X  :
 DEPTH.X  :
 RES.X  :
 LT.X  :
 ST.X  :
 Ro.X  :
 Kgl.X  :
 Kpr.X  :
 Kos.X  :
 Facies.X  :
~PARAMETERS INFORMATION
 P2.X    : X
 P1.X    : X
~A  DEPTXXXX  DEPTH  RES  LT  ST  Ro  Kgl  Kpr  Kos  Facies
# ...
  2760.2  2760.2  0.0  0.0  0.0  0.0  0.0  -999.25  0.0  0.0
  2760.4  2760.3999  0.0  0.0  0.0  0.0  0.0  -999.25  0.0  0.0
  2760.6  2760.6001  0.0  0.0  0.0  0.0  0.0  -999.25  0.0  0.0
  2760.8  2760.8  0.0  0.0  0.0  0.0  0.0  -999.25  0.0  0.0
  2761.0  2761.0  0.0  0.0  0.0  0.0  0.0  -999.25  0.0  0.0
  2761.2  2761.2  0.0  0.0  0.0  0.0  0.0  -999.25  0.0  0.0
  2761.4  2761.3999  0.0  0.0  0.0  0.0  0.0  -999.25  0.0  0.0
  2761.6  2761.6001  0.0  0.0  0.0  0.0  0.0  -999.25  0.0  0.0
  2761.8  2761.8  0.0  0.0  0.0  0.0  0.0  -999.25  0.0  0.0
  2762.0  2762.0  0.0  0.0  0.0  0.0  0.0  -999.25  0.0  0.0
  2762.2  2762.2  0.0  0.0  0.0  0.0  0.0  -999.25  0.0  0.0
  2762.4  2762.3999  0.0  0.0  0.0  0.0  0.0  -999.25  0.0  0.0
  2762.6  2762.6001  0.0  0.0  0.0  0.0  0.0  -999.25  0.0  0.0
  2762.8  2762.8  0.0  0.0  0.0  0.0  0.0  -999.25  0.0  0.0
  2763.0  2763.0  0.0  0.0  0.0  0.0  0.0  -999.25  0.0  0.0
  2763.2  2763.2  0.0  0.0  0.0  0.0  0.0  -999.25  0.0  0.0
  2763.4  2763.3999  0.0  0.0  0.0  0.0  0.0  -999.25  0.0  0.0
  2763.6  2763.6001  0.0  0.0  0.0  0.0  0.0  -999.25  0.0  0.0
  2763.8  2763.8  0.0  0.0  0.0  0.0  0.0  -999.25  0.0  0.0
  2764.0  2764.0  0.0  0.0  0.0  0.0  0.0  -999.25  0.0  0.0
  2764.2  2764.2  0.0  0.0  0.0  0.0  0.0  -999.25  0.0  0.0
  2764.4  2764.3999  0.0  0.0  0.0  0.0  0.0  -999.25  0.0  0.0
  2764.6  2764.6001  0.0  0.0  0.0  0.0  0.0  -999.25  0.0  0.0
  2764.8  2764.8  0.0  0.0  0.0  0.0  0.0  -999.25  0.0  0.0
  2765.0  2765.0  0.0  0.0  0.0  0.0  0.0  -999.25  0.0  0.0
  2765.2  2765.2  0.0  0.0  0.0  0.0  0.0  -999.25  0.0  0.0
  2765.4  2765.3999  0.0  0.0  0.0  0.0  0.0  -999.25  0.0  0.0
  2765.6  2765.6001  0.0  0.0  0.0  0.0  0.0  -999.25  0.0  0.0
  2765.8  2765.8  0.0  0.0  0.0  0.0  0.0  -999.25  0.0  0.0
  2766.0  2766.0  0.0  0.0  0.0  0.0  0.0  -999.25  0.0  0.0
  2766.2  2766.2  0.0  0.0  0.0  0.0  0.0  -999.25  0.0  0.0
  2766.4  2766.3999  0.0  0.0  0.0  0.0  0.0  -999.25  0.0  0.0
  2766.6  2766.6001  0.0  0.0  0.0  0.0  0.0  -999.25  0.0  0.0
  2766.8  2766.8  0.0  0.0  0.0  0.0  0.0  -999.25  0.0  0.0
  2767.0  2767.0  0.0  0.0  0.0  0.0  0.0  -999.25  0.0  0.0
  2767.2  2767.2  0.0  0.0  0.0  0.0  0.0  -999.25  0.0  0.0
  2767.4  2767.3999  0.0  0.0  0.0  0.0  0.0  -999.25  0.0  0.0
  2767.6  2767.6001  0.0  0.0  0.0  0.0  0.0  -999.25  0.0  0.0
  2767.8  2767.8  0.0  0.0  0.0  0.0  0.0  -999.25  0.0  0.0
  2768.0  2768.0  0.0  0.0  0.0  0.0  0.0  -999.25  0.0  0.0
  2768.2  2768.2  0.0  0.0  0.0  0.0  0.0  -999.25  0.0  0.0
  2768.4  2768.3999  0.0  0.0  0.0  0.0  0.0  -999.25  0.0  0.0
  2768.6  2768.6001  0.0  0.0  0.0  0.0  0.0  -999.25  0.0  0.0
  2768.8  2768.8  0.0  0.0  0.0  0.0  0.0  -999.25  0.0  0.0
  2769.0  2769.0  0.0  0.0  0.0  0.0  0.0  -999.25  0.0  0.0
  2769.2  2769.2  0.0  0.0  0.0  0.0  0.0  -999.25  0.0  0.0
  2769.4  2769.3999  0.0  1.0  0.0  -999.25  -999.25  -999.25  0.0  0.0
  2769.6  2769.6001  0.0  1.0  0.0  -999.25  -999.25  -999.25  0.0  0.0
  2769.8  2769.8  0.0  1.0  0.0  -999.25  -999.25  -999.25  0.0  0.0
  2770.0  2770.0  0.0  1.0  0.0  -999.25  -999.25  -999.25  0.0  0.0
  2770.2  2770.2  0.0  1.0  0.0  -999.25  -999.25  -999.25  0.0  0.0
  2770.4  2770.3999  0.0  1.0  0.0  -999.25  -999.25  -999.25  0.0  0.0
  2770.6  2770.6001  0.0  1.0  0.0  -999.25  -999.25  -999.25  0.0  0.0
  2770.8  2770.8  0.0  1.0  0.0  -999.25  -999.25  -999.25  0.0  0.0
  2771.0  2771.0  0.0  1.0  0.0  -999.25  -999.25  -999.25  0.0  0.0
  2771.2  2771.2  0.0  1.0  0.0  -999.25  -999.25  -999.25  0.0  0.0
  2771.4  2771.3999  0.0  1.0  0.0  -999.25  -999.25  -999.25  0.0  0.0
  2771.6  2771.6001  0.0  1.0  0.0  -999.25  -999.25  -999.25  0.0  0.0
  2771.8  2771.8  0.0  1.0  0.0  -999.25  -999.25  -999.25  0.0  0.0
  2772.0  2772.0  0.0  1.0  0.0  -999.25  -999.25  -999.25  0.0  0.0
  2772.2  2772.2  0.0  1.0  0.0  -999.25  -999.25  -999.25  0.0  0.0
  2772.4  2772.3999  0.0  1.0  0.0  -999.25  -999.25  -999.25  0.0  0.0
  2772.6  2772.6001  0.0  1.0  0.0  -999.25  -999.25  -999.25  0.0  0.0
  2772.8  2772.8  0.0  1.0  0.0  -999.25  -999.25  -999.25  0.0  0.0
  2773.0  2773.0  0.0  1.0  0.0  -999.25  -999.25  -999.25  0.0  0.0
  2773.2  2773.2  0.0  1.0  0.0  -999.25  -999.25  -999.25  0.0  0.0
  2773.4  2773.3999  0.0  1.0  0.0  -999.25  -999.25  -999.25  0.0  0.0
  2773.6  2773.6001  0.0  1.0  0.0  -999.25  -999.25  -999.25  0.0  0.0
  2773.8  2773.8  0.0  1.0  0.0  -999.25  -999.25  -999.25  0.0  0.0
  2774.0  2774.0  0.0  1.0  0.0  -999.25  -999.25  -999.25  0.0  0.0
  2774.2  2774.2  0.0  1.0  0.0  -999.25  -999.25  -999.25  0.0  0.0
  2774.4  2774.3999  0.0  1.0  0.0  -999.25  -999.25  -999.25  0.0  0.0
  2774.6  2774.6001  0.0  1.0  0.0  -999.25  -999.25  -999.25  0.0  0.0
  2774.8  2774.8  0.0  1.0  0.0  -999.25  -999.25  -999.25  0.0  0.0
  2775.0  2775.0  0.0  1.0  0.0  -999.25  -999.25  -999.25  0.0  0.0
  2775.2  2775.2  0.0  1.0  0.0  -999.25  -999.25  -999.25  0.0  0.0
  2775.4  2775.3999  0.0  1.0  0.0  -999.25  -999.25  -999.25  0.0  0.0
  2775.6  2775.6001  0.0  1.0  0.0  -999.25  -999.25  -999.25  0.0  0.0
  2775.8  2775.8  0.0  1.0  0.0  -999.25  -999.25  -999.25  0.0  0.0
  2776.0  2776.0  0.0  1.0  0.0  -999.25  -999.25  -999.25  0.0  0.0
  2776.2  2776.2  0.0  1.0  0.0  -999.25  -999.25  -999.25  0.0  0.0
  2776.4  2776.3999  0.0  1.0  0.0  -999.25  -999.25  -999.25  0.0  0.0
  2776.6  2776.6001  0.0  1.0  0.0  -999.25  -999.25  -999.25  0.0  0.0
  2776.8  2776.8  0.0  1.0  0.0  -999.25  -999.25  -999.25  0.0  0.0
  2777.0  2777.0  0.0  1.0  0.0  -999.25  -999.25  -999.25  0.0  0.0
  2777.2  2777.2  0.0  1.0  0.0  -999.25  -999.25  -999.25  0.0  0.0
  2777.4  2777.3999  0.0  1.0  0.0  -999.25  -999.25  -999.25  0.0  0.0
  2777.6  2777.6001  0.0  1.0  0.0  -999.25  -999.25  -999.25  0.0  0.0
  2777.8  2777.8  0.0  1.0  0.0  -999.25  -999.25  -999.25  0.0  0.0
  2778.0  2778.0  0.0  1.0  0.0  -999.25  -999.25  -999.25  0.0  0.0
  2778.2  2778.2  0.0  1.0  0.0  -999.25  -999.25  -999.25  0.0  0.0
  2778.4  2778.3999  0.0  1.0  0.0  -999.25  -999.25  -999.25  0.0  0.0
  2778.6  2778.6001  0.0  1.0  0.0  -999.25  -999.25  -999.25  0.0  0.0
  2778.8  2778.8  0.0  1.0  0.0  -999.25  -999.25  -999.25  0.0  0.0
  2779.0  2779.0  0.0  1.0  0.0  -999.25  -999.25  -999.25  0.0  0.0
  2779.2  2779.2  0.0  1.0  0.0  -999.25  -999.25  -999.25  0.0  0.0
  2779.4  2779.3999  0.0  1.0  0.0  -999.25  -999.25  -999.25  0.0  0.0
  2779.6  2779.6001  0.0  1.0  0.0  -999.25  -999.25  -999.25  0.0  0.0
  2779.8  2779.8  0.0  1.0  0.0  -999.25  -999.25  -999.25  0.0  0.0
  2780.0  2780.0  0.0  1.0  0.0  -999.25  -999.25  -999.25  0.0  0.0
  2780.2  2780.2  0.0  1.0  0.0  -999.25  -999.25  -999.25  0.0  0.0
  2780.4  2780.3999  0.0  1.0  0.0  -999.25  -999.25  -999.25  0.0  0.0
  2780.6  2780.6001  0.0  1.0  0.0  -999.25  -999.25  -999.25  0.0  0.0
  2780.8  2780.8  0.0  1.0  0.0  -999.25  -999.25  -999.25  0.0  0.0
  2781.0  2781.0  0.0  1.0  0.0  -999.25  -999.25  -999.25  0.0  0.0
  2781.2  2781.2  0.0  1.0  0.0  -999.25  -999.25  -999.25  0.0  0.0
  2781.4  2781.3999  0.0  1.0  0.0  -999.25  -999.25  -999.25  0.0  0.0
  2781.6  2781.6001  0.0  1.0  0.0  -999.25  -999.25  -999.25  0.0  0.0
  2781.8  2781.8  0.0  1.0  0.0  -999.25  -999.25  -999.25  0.0  0.0
  2782.0  2782.0  0.0  1.0  0.0  -999.25  -999.25  -999.25  0.0  0.0
  2782.2  2782.2  0.0  1.0  0.0  -999.25  -999.25  -999.25  0.0  0.0
  2782.4  2782.3999  0.0  1.0  0.0  -999.25  -999.25  -999.25  0.0  0.0
  2782.6  2782.6001  0.0  1.0  0.0  -999.25  -999.25  -999.25  0.0  0.0
  2782.8  2782.8  0.0  1.0  0.0  -999.25  -999.25  -999.25  0.0  0.0
  2783.0  2783.0  0.0  1.0  0.0  -999.25  -999.25  -999.25  0.0  0.0
  2783.2  2783.2  0.0  1.0  0.0  -999.25  -999.25  -999.25  0.0  0.0
  2783.4  2783.3999  0.0  1.0  0.0  -999.25  -999.25  -999.25  0.0  0.0
  2783.6  2783.6001  0.0  1.0  0.0  -999.25  -999.25  -999.25  0.0  0.0
  2783.8  2783.8  0.0  1.0  0.0  -999.25  -999.25  -999.25  0.0  0.0
  2784.0  2784.0  0.0  1.0  0.0  -999.25  -999.25  -999.25  0.0  0.0
