~VERSION INFORMATION
 VERS. 2.0  : 
 WRAP. YES  :
~WELL INFORMATION
 LOC.X    :
 SRVC.X    :
 COMP.X    :
 WELL.X  100  :
 STOP.X  3220.00000000  :
 UWI.X  ccaf8416-11fb-4f20-a397-fdc46fcefdd8  :
 STRT.X  2736.00000000  :
 STEP.X  0.20000000  :
 API.X    :
 PROV.X    :
 DATE.X  Tuesday December 08 2009 10  :
 NULL.X  -999.250000  :
 FLD.X    :
~CURVE INFORMATION
 DEPTXXXX.X  :
 DEPTH.X  :
 RES.X  :
 LT.X  :
 ST.X  :
 Ro.X  :
 Kgl.X  :
 Kpr.X  :
 Kos.X  :
 Facies.X  :
~PARAMETERS INFORMATION
 P2.X    : X
 P1.X    : X
~A  DEPTXXXX  DEPTH  RES  LT  ST  Ro  Kgl  Kpr  Kos  Facies
# ...
  3178.8  3178.8  0.0  1.0  0.0  -999.25  -999.25  -999.25  0.0  0.0
  3179.0  3179.0  0.0  1.0  0.0  -999.25  -999.25  -999.25  0.0  0.0
  3179.2  3179.2  0.0  1.0  0.0  -999.25  -999.25  -999.25  0.0  0.0
  3179.4  3179.3999  0.0  1.0  0.0  -999.25  -999.25  -999.25  0.0  0.0
  3179.6  3179.6001  0.0  1.0  0.0  -999.25  -999.25  -999.25  0.0  0.0
  3179.8  3179.8  0.0  1.0  0.0  -999.25  -999.25  -999.25  0.0  0.0
  3180.0  3180.0  0.0  1.0  0.0  -999.25  -999.25  -999.25  0.0  0.0
  3180.2  3180.2  0.0  1.0  0.0  -999.25  -999.25  -999.25  0.0  0.0
  3180.4  3180.3999  0.0  1.0  0.0  -999.25  -999.25  -999.25  0.0  0.0
  3180.6  3180.6001  0.0  1.0  0.0  -999.25  -999.25  -999.25  0.0  0.0
  3180.8  3180.8  0.0  1.0  0.0  -999.25  -999.25  -999.25  0.0  0.0
  3181.0  3181.0  0.0  1.0  0.0  -999.25  -999.25  -999.25  0.0  0.0
  3181.2  3181.2  0.0  1.0  0.0  -999.25  -999.25  -999.25  0.0  0.0
  3181.4  3181.3999  0.0  1.0  0.0  -999.25  -999.25  -999.25  0.0  0.0
  3181.6  3181.6001  0.0  1.0  0.0  -999.25  -999.25  -999.25  0.0  0.0
  3181.8  3181.8  0.0  1.0  0.0  -999.25  -999.25  -999.25  0.0  0.0
  3182.0  3182.0  0.0  1.0  0.0  -999.25  -999.25  -999.25  0.0  0.0
  3182.2  3182.2  0.0  1.0  0.0  -999.25  -999.25  -999.25  0.0  0.0
  3182.4  3182.3999  0.0  1.0  0.0  -999.25  -999.25  -999.25  0.0  0.0
  3182.6  3182.6001  0.0  1.0  0.0  -999.25  -999.25  -999.25  0.0  0.0
  3182.8  3182.8  0.0  1.0  0.0  -999.25  -999.25  -999.25  0.0  0.0
  3183.0  3183.0  0.0  1.0  0.0  -999.25  -999.25  -999.25  0.0  0.0
  3183.2  3183.2  0.0  1.0  0.0  -999.25  -999.25  -999.25  0.0  0.0
  3183.4  3183.3999  0.0  1.0  0.0  -999.25  -999.25  -999.25  0.0  0.0
  3183.6  3183.6001  0.0  1.0  0.0  -999.25  -999.25  -999.25  0.0  0.0
  3183.8  3183.8  0.0  1.0  0.0  -999.25  -999.25  -999.25  0.0  0.0
  3184.0  3184.0  0.0  1.0  0.0  -999.25  -999.25  -999.25  0.0  0.0
  3184.2  3184.2  0.0  1.0  0.0  -999.25  -999.25  -999.25  0.0  0.0
  3184.4  3184.3999  0.0  1.0  0.0  -999.25  -999.25  -999.25  0.0  0.0
  3184.6  3184.6001  0.0  1.0  0.0  -999.25  -999.25  -999.25  0.0  0.0
  3184.8  3184.8  0.0  1.0  0.0  -999.25  -999.25  -999.25  0.0  0.0
  3185.0  3185.0  0.0  1.0  0.0  -999.25  -999.25  -999.25  0.0  0.0
  3185.2  3185.2  0.0  1.0  0.0  -999.25  -999.25  -999.25  0.0  0.0
  3185.4  3185.3999  0.0  1.0  0.0  -999.25  -999.25  -999.25  0.0  0.0
  3185.6  3185.6001  0.0  1.0  0.0  -999.25  -999.25  -999.25  0.0  0.0
  3185.8  3185.8  0.0  1.0  0.0  -999.25  -999.25  -999.25  0.0  0.0
  3186.0  3186.0  0.0  1.0  0.0  -999.25  -999.25  -999.25  0.0  0.0
  3186.2  3186.2  0.0  1.0  0.0  -999.25  -999.25  -999.25  0.0  0.0
  3186.4  3186.3999  0.0  1.0  0.0  -999.25  -999.25  -999.25  0.0  0.0
  3186.6  3186.6001  0.0  1.0  0.0  -999.25  -999.25  -999.25  0.0  0.0
  3186.8  3186.8  0.0  1.0  0.0  -999.25  -999.25  -999.25  0.0  0.0
  3187.0  3187.0  0.0  1.0  0.0  -999.25  -999.25  -999.25  0.0  0.0
  3187.2  3187.2  0.0  1.0  0.0  -999.25  -999.25  -999.25  0.0  0.0
  3187.4  3187.3999  0.0  1.0  0.0  -999.25  -999.25  -999.25  0.0  0.0
  3187.6  3187.6001  0.0  1.0  0.0  -999.25  -999.25  -999.25  0.0  0.0
  3187.8  3187.8  0.0  1.0  0.0  -999.25  -999.25  -999.25  0.0  0.0
  3188.0  3188.0  0.0  1.0  0.0  -999.25  -999.25  -999.25  0.0  0.0
  3188.2  3188.2  0.0  1.0  0.0  -999.25  -999.25  -999.25  0.0  0.0
  3188.4  3188.3999  0.0  1.0  0.0  -999.25  -999.25  -999.25  0.0  0.0
  3188.6  3188.6001  0.0  1.0  0.0  -999.25  -999.25  -999.25  0.0  0.0
  3188.8  3188.8  0.0  1.0  0.0  -999.25  -999.25  -999.25  0.0  0.0
  3189.0  3189.0  0.0  1.0  0.0  -999.25  -999.25  -999.25  0.0  0.0
  3189.2  3189.2  0.0  1.0  0.0  -999.25  -999.25  -999.25  0.0  0.0
  3189.4  3189.3999  0.0  1.0  0.0  -999.25  -999.25  -999.25  0.0  0.0
  3189.6  3189.6001  0.0  1.0  0.0  -999.25  -999.25  -999.25  0.0  0.0
  3189.8  3189.8  0.0  1.0  0.0  -999.25  -999.25  -999.25  0.0  0.0
  3190.0  3190.0  0.0  1.0  0.0  -999.25  -999.25  -999.25  0.0  0.0
  3190.2  3190.2  0.0  1.0  0.0  -999.25  -999.25  -999.25  0.0  0.0
  3190.4  3190.3999  0.0  1.0  0.0  -999.25  -999.25  -999.25  0.0  0.0
  3190.6  3190.6001  0.0  1.0  0.0  -999.25  -999.25  -999.25  0.0  0.0
  3190.8  3190.8  0.0  1.0  0.0  -999.25  -999.25  -999.25  0.0  0.0
  3191.0  3191.0  0.0  1.0  0.0  -999.25  -999.25  -999.25  0.0  0.0
  3191.2  3191.2  0.0  1.0  0.0  -999.25  -999.25  -999.25  0.0  0.0
  3191.4  3191.3999  0.0  1.0  0.0  -999.25  -999.25  -999.25  0.0  0.0
  3191.6  3191.6001  0.0  1.0  0.0  -999.25  -999.25  -999.25  0.0  0.0
  3191.8  3191.8  0.0  1.0  0.0  -999.25  -999.25  -999.25  0.0  0.0
  3192.0  3192.0  0.0  1.0  0.0  -999.25  -999.25  -999.25  0.0  0.0
  3192.2  3192.2  0.0  1.0  0.0  -999.25  -999.25  -999.25  0.0  0.0
  3192.4  3192.3999  0.0  1.0  0.0  -999.25  -999.25  -999.25  0.0  0.0
  3192.6  3192.6001  0.0  1.0  0.0  -999.25  -999.25  -999.25  0.0  0.0
  3192.8  3192.8  0.0  1.0  0.0  -999.25  -999.25  -999.25  0.0  0.0
  3193.0  3193.0  0.0  1.0  0.0  -999.25  -999.25  -999.25  0.0  0.0
  3193.2  3193.2  0.0  1.0  0.0  -999.25  -999.25  -999.25  0.0  0.0
  3193.4  3193.3999  0.0  1.0  0.0  -999.25  -999.25  -999.25  0.0  0.0
  3193.6  3193.6001  0.0  1.0  0.0  -999.25  -999.25  -999.25  0.0  0.0
  3193.8  3193.8  0.0  1.0  0.0  -999.25  -999.25  -999.25  0.0  0.0
  3194.0  3194.0  0.0  1.0  0.0  -999.25  -999.25  -999.25  0.0  0.0
  3194.2  3194.2  0.0  1.0  0.0  -999.25  -999.25  -999.25  0.0  0.0
  3194.4  3194.3999  0.0  1.0  0.0  -999.25  -999.25  -999.25  0.0  0.0
  3194.6  3194.6001  0.0  1.0  0.0  -999.25  -999.25  -999.25  0.0  0.0
  3194.8  3194.8  0.0  1.0  0.0  -999.25  -999.25  -999.25  0.0  0.0
  3195.0  3195.0  0.0  1.0  0.0  -999.25  -999.25  -999.25  0.0  0.0
  3195.2  3195.2  0.0  1.0  0.0  -999.25  -999.25  -999.25  0.0  0.0
  3195.4  3195.3999  0.0  1.0  0.0  -999.25  -999.25  -999.25  0.0  0.0
  3195.6  3195.6001  0.0  1.0  0.0  -999.25  -999.25  -999.25  0.0  0.0
  3195.8  3195.8  0.0  1.0  0.0  -999.25  -999.25  -999.25  0.0  0.0
  3196.0  3196.0  0.0  1.0  0.0  -999.25  -999.25  -999.25  0.0  0.0
  3196.2  3196.2  0.0  1.0  0.0  -999.25  -999.25  -999.25  0.0  0.0
  3196.4  3196.3999  0.0  1.0  0.0  -999.25  -999.25  -999.25  0.0  0.0
  3196.6  3196.6001  0.0  1.0  0.0  -999.25  -999.25  -999.25  0.0  0.0
  3196.8  3196.8  0.0  1.0  0.0  -999.25  -999.25  -999.25  0.0  0.0
  3197.0  3197.0  0.0  1.0  0.0  -999.25  -999.25  -999.25  0.0  0.0
  3197.2  3197.2  0.0  1.0  0.0  -999.25  -999.25  -999.25  0.0  0.0
  3197.4  3197.3999  0.0  1.0  0.0  -999.25  -999.25  -999.25  0.0  0.0
  3197.6  3197.6001  0.0  1.0  0.0  -999.25  -999.25  -999.25  0.0  0.0
  3197.8  3197.8  0.0  1.0  0.0  -999.25  -999.25  -999.25  0.0  0.0
  3198.0  3198.0  0.0  1.0  0.0  -999.25  -999.25  -999.25  0.0  0.0
  3198.2  3198.2  0.0  1.0  0.0  -999.25  -999.25  -999.25  0.0  0.0
  3198.4  3198.3999  0.0  1.0  0.0  -999.25  -999.25  -999.25  0.0  0.0
  3198.6  3198.6001  0.0  1.0  0.0  -999.25  -999.25  -999.25  0.0  0.0
  3198.8  3198.8  0.0  1.0  0.0  -999.25  -999.25  -999.25  0.0  0.0
  3199.0  3199.0  0.0  1.0  0.0  -999.25  -999.25  -999.25  0.0  0.0
  3199.2  3199.2  0.0  1.0  0.0  -999.25  -999.25  -999.25  0.0  0.0
  3199.4  3199.3999  0.0  1.0  0.0  -999.25  -999.25  -999.25  0.0  0.0
  3199.6  3199.6001  0.0  1.0  0.0  -999.25  -999.25  -999.25  0.0  0.0
  3199.8  3199.8  0.0  1.0  0.0  -999.25  -999.25  -999.25  0.0  0.0
  3200.0  3200.0  0.0  1.0  0.0  -999.25  -999.25  -999.25  0.0  0.0
  3200.2  3200.2  0.0  1.0  0.0  -999.25  -999.25  -999.25  0.0  0.0
  3200.4  3200.3999  0.0  1.0  0.0  -999.25  -999.25  -999.25  0.0  0.0
  3200.6  3200.6001  0.0  1.0  0.0  -999.25  -999.25  -999.25  0.0  0.0
  3200.8  3200.8  0.0  1.0  0.0  -999.25  -999.25  -999.25  0.0  0.0
  3201.0  3201.0  0.0  1.0  0.0  -999.25  -999.25  -999.25  0.0  0.0
  3201.2  3201.2  0.0  1.0  0.0  -999.25  -999.25  -999.25  0.0  0.0
  3201.4  3201.3999  0.0  1.0  0.0  -999.25  -999.25  -999.25  0.0  0.0
