~VERSION INFORMATION
 VERS. 2.0  : 
 WRAP. YES  :
~WELL INFORMATION
 LOC.X    :
 SRVC.X    :
 COMP.X    :
 WELL.X  100  :
 STOP.X  3220.00000000  :
 UWI.X  ccaf8416-11fb-4f20-a397-fdc46fcefdd8  :
 STRT.X  2736.00000000  :
 STEP.X  0.20000000  :
 API.X    :
 PROV.X    :
 DATE.X  Tuesday December 08 2009 10  :
 NULL.X  -999.250000  :
 FLD.X    :
~CURVE INFORMATION
 DEPTXXXX.X  :
 DEPTH.X  :
 RES.X  :
 LT.X  :
 ST.X  :
 Ro.X  :
 Kgl.X  :
 Kpr.X  :
 Kos.X  :
 Facies.X  :
~PARAMETERS INFORMATION
 P2.X    : X
 P1.X    : X
~A  DEPTXXXX  DEPTH  RES  LT  ST  Ro  Kgl  Kpr  Kos  Facies
  2736.0  2736.0  0.0  0.0  0.0  0.0  0.0  -999.25  0.0  0.0
  2736.2  2736.2  0.0  0.0  0.0  0.0  0.0  -999.25  0.0  0.0
  2736.4  2736.3999  0.0  0.0  0.0  0.0  0.0  -999.25  0.0  0.0
  2736.6  2736.6001  0.0  0.0  0.0  0.0  0.0  -999.25  0.0  0.0
  2736.8  2736.8  0.0  0.0  0.0  0.0  0.0  -999.25  0.0  0.0
  2737.0  2737.0  0.0  0.0  0.0  0.0  0.0  -999.25  0.0  0.0
  2737.2  2737.2  0.0  0.0  0.0  0.0  0.0  -999.25  0.0  0.0
  2737.4  2737.3999  0.0  0.0  0.0  0.0  0.0  -999.25  0.0  0.0
  2737.6  2737.6001  0.0  0.0  0.0  0.0  0.0  -999.25  0.0  0.0
  2737.8  2737.8  0.0  0.0  0.0  0.0  0.0  -999.25  0.0  0.0
  2738.0  2738.0  0.0  1.0  0.0  -999.25  -999.25  -999.25  0.0  0.0
  2738.2  2738.2  0.0  1.0  0.0  -999.25  -999.25  -999.25  0.0  0.0
  2738.4  2738.3999  0.0  1.0  0.0  -999.25  -999.25  -999.25  0.0  0.0
  2738.6  2738.6001  0.0  1.0  0.0  -999.25  -999.25  -999.25  0.0  0.0
  2738.8  2738.8  0.0  1.0  0.0  -999.25  -999.25  -999.25  0.0  0.0
  2739.0  2739.0  0.0  1.0  0.0  -999.25  -999.25  -999.25  0.0  0.0
  2739.2  2739.2  0.0  1.0  0.0  -999.25  -999.25  -999.25  0.0  0.0
  2739.4  2739.3999  0.0  1.0  0.0  -999.25  -999.25  -999.25  0.0  0.0
  2739.6  2739.6001  0.0  1.0  0.0  -999.25  -999.25  -999.25  0.0  0.0
  2739.8  2739.8  0.0  1.0  0.0  -999.25  -999.25  -999.25  0.0  0.0
  2740.0  2740.0  0.0  1.0  0.0  -999.25  -999.25  -999.25  0.0  0.0
  2740.2  2740.2  0.0  1.0  0.0  -999.25  -999.25  -999.25  0.0  0.0
  2740.4  2740.3999  0.0  1.0  0.0  -999.25  -999.25  -999.25  0.0  0.0
  2740.6  2740.6001  0.0  1.0  0.0  -999.25  -999.25  -999.25  0.0  0.0
  2740.8  2740.8  0.0  1.0  0.0  -999.25  -999.25  -999.25  0.0  0.0
  2741.0  2741.0  0.0  1.0  0.0  -999.25  -999.25  -999.25  0.0  0.0
  2741.2  2741.2  0.0  1.0  0.0  -999.25  -999.25  -999.25  0.0  0.0
  2741.4  2741.3999  0.0  1.0  0.0  -999.25  -999.25  -999.25  0.0  0.0
  2741.6  2741.6001  0.0  1.0  0.0  -999.25  -999.25  -999.25  0.0  0.0
  2741.8  2741.8  0.0  1.0  0.0  -999.25  -999.25  -999.25  0.0  0.0
  2742.0  2742.0  0.0  1.0  0.0  -999.25  -999.25  -999.25  0.0  0.0
  2742.2  2742.2  0.0  1.0  0.0  -999.25  -999.25  -999.25  0.0  0.0
  2742.4  2742.3999  0.0  1.0  0.0  -999.25  -999.25  -999.25  0.0  0.0
  2742.6  2742.6001  0.0  1.0  0.0  -999.25  -999.25  -999.25  0.0  0.0
  2742.8  2742.8  0.0  1.0  0.0  -999.25  -999.25  -999.25  0.0  0.0
  2743.0  2743.0  0.0  1.0  0.0  -999.25  -999.25  -999.25  0.0  0.0
  2743.2  2743.2  0.0  1.0  0.0  -999.25  -999.25  -999.25  0.0  0.0
  2743.4  2743.3999  0.0  1.0  0.0  -999.25  -999.25  -999.25  0.0  0.0
  2743.6  2743.6001  0.0  1.0  0.0  -999.25  -999.25  -999.25  0.0  0.0
  2743.8  2743.8  0.0  1.0  0.0  -999.25  -999.25  -999.25  0.0  0.0
  2744.0  2744.0  0.0  0.0  0.0  0.0  0.0  -999.25  0.0  0.0
  2744.2  2744.2  0.0  0.0  0.0  0.0  0.0  -999.25  0.0  0.0
  2744.4  2744.3999  0.0  0.0  0.0  0.0  0.0  -999.25  0.0  0.0
  2744.6  2744.6001  0.0  0.0  0.0  0.0  0.0  -999.25  0.0  0.0
  2744.8  2744.8  1.0  3.0  4.0  10.3  -999.25  -999.25  58.5  1.0
  2745.0  2745.0  1.0  3.0  4.0  10.3  -999.25  -999.25  58.5  1.0
  2745.2  2745.2  1.0  3.0  4.0  10.3  -999.25  -999.25  58.5  1.0
  2745.4  2745.3999  1.0  3.0  4.0  10.3  -999.25  -999.25  58.5  1.0
  2745.6  2745.6001  0.0  0.0  0.0  0.0  0.0  -999.25  0.0  0.0
  2745.8  2745.8  0.0  0.0  0.0  0.0  0.0  -999.25  0.0  0.0
  2746.0  2746.0  0.0  0.0  0.0  0.0  0.0  -999.25  0.0  0.0
  2746.2  2746.2  0.0  0.0  0.0  0.0  0.0  -999.25  0.0  0.0
  2746.4  2746.3999  1.0  3.0  4.0  9.6999998  -999.25  -999.25  57.599998  1.0
  2746.6  2746.6001  1.0  3.0  4.0  9.6999998  -999.25  -999.25  57.599998  1.0
  2746.8  2746.8  1.0  3.0  4.0  9.6999998  -999.25  -999.25  57.599998  1.0
  2747.0  2747.0  1.0  3.0  4.0  9.6999998  -999.25  -999.25  57.599998  1.0
  2747.2  2747.2  1.0  3.0  4.0  9.6999998  -999.25  -999.25  57.599998  1.0
  2747.4  2747.3999  1.0  3.0  4.0  9.6999998  -999.25  -999.25  57.599998  1.0
  2747.6  2747.6001  1.0  3.0  4.0  9.6999998  -999.25  -999.25  57.599998  1.0
  2747.8  2747.8  0.0  0.0  0.0  0.0  0.0  -999.25  0.0  0.0
  2748.0  2748.0  0.0  0.0  0.0  0.0  0.0  -999.25  0.0  0.0
  2748.2  2748.2  0.0  0.0  0.0  0.0  0.0  -999.25  0.0  0.0
  2748.4  2748.3999  0.0  0.0  0.0  0.0  0.0  -999.25  0.0  0.0
  2748.6  2748.6001  0.0  0.0  0.0  0.0  0.0  -999.25  0.0  0.0
  2748.8  2748.8  0.0  0.0  0.0  0.0  0.0  -999.25  0.0  0.0
  2749.0  2749.0  1.0  3.0  4.0  9.6000004  -999.25  -999.25  56.200001  1.0
  2749.2  2749.2  1.0  3.0  4.0  9.6000004  -999.25  -999.25  56.200001  1.0
  2749.4  2749.3999  0.0  0.0  0.0  0.0  0.0  -999.25  0.0  0.0
  2749.6  2749.6001  0.0  0.0  0.0  0.0  0.0  -999.25  0.0  0.0
  2749.8  2749.8  1.0  3.0  4.0  9.8000002  -999.25  -999.25  56.799999  1.0
  2750.0  2750.0  1.0  3.0  4.0  9.8000002  -999.25  -999.25  56.799999  1.0
  2750.2  2750.2  1.0  3.0  4.0  9.8000002  -999.25  -999.25  56.799999  1.0
  2750.4  2750.3999  0.0  0.0  0.0  0.0  0.0  -999.25  0.0  0.0
  2750.6  2750.6001  0.0  0.0  0.0  0.0  0.0  -999.25  0.0  0.0
  2750.8  2750.8  0.0  4.0  0.0  -999.25  -999.25  -999.25  0.0  0.0
  2751.0  2751.0  0.0  4.0  0.0  -999.25  -999.25  -999.25  0.0  0.0
  2751.2  2751.2  0.0  4.0  0.0  -999.25  -999.25  -999.25  0.0  0.0
  2751.4  2751.3999  0.0  4.0  0.0  -999.25  -999.25  -999.25  0.0  0.0
  2751.6  2751.6001  0.0  0.0  0.0  0.0  0.0  -999.25  0.0  0.0
  2751.8  2751.8  0.0  0.0  0.0  0.0  0.0  -999.25  0.0  0.0
  2752.0  2752.0  0.0  0.0  0.0  0.0  0.0  -999.25  0.0  0.0
  2752.2  2752.2  0.0  0.0  0.0  0.0  0.0  -999.25  0.0  0.0
  2752.4  2752.3999  0.0  0.0  0.0  0.0  0.0  -999.25  0.0  0.0
  2752.6  2752.6001  0.0  0.0  0.0  0.0  0.0  -999.25  0.0  0.0
  2752.8  2752.8  0.0  0.0  0.0  0.0  0.0  -999.25  0.0  0.0
  2753.0  2753.0  0.0  0.0  0.0  0.0  0.0  -999.25  0.0  0.0
  2753.2  2753.2  0.0  0.0  0.0  0.0  0.0  -999.25  0.0  0.0
  2753.4  2753.3999  0.0  0.0  0.0  0.0  0.0  -999.25  0.0  0.0
  2753.6  2753.6001  0.0  0.0  0.0  0.0  0.0  -999.25  0.0  0.0
  2753.8  2753.8  0.0  0.0  0.0  0.0  0.0  -999.25  0.0  0.0
  2754.0  2754.0  0.0  0.0  0.0  0.0  0.0  -999.25  0.0  0.0
  2754.2  2754.2  0.0  0.0  0.0  0.0  0.0  -999.25  0.0  0.0
  2754.4  2754.3999  0.0  0.0  0.0  0.0  0.0  -999.25  0.0  0.0
  2754.6  2754.6001  0.0  0.0  0.0  0.0  0.0  -999.25  0.0  0.0
  2754.8  2754.8  0.0  0.0  0.0  0.0  0.0  -999.25  0.0  0.0
  2755.0  2755.0  0.0  0.0  0.0  0.0  0.0  -999.25  0.0  0.0
  2755.2  2755.2  0.0  0.0  0.0  0.0  0.0  -999.25  0.0  0.0
  2755.4  2755.3999  0.0  0.0  0.0  0.0  0.0  -999.25  0.0  0.0
  2755.6  2755.6001  0.0  0.0  0.0  0.0  0.0  -999.25  0.0  0.0
  2755.8  2755.8  0.0  0.0  0.0  0.0  0.0  -999.25  0.0  0.0
  2756.0  2756.0  0.0  0.0  0.0  0.0  0.0  -999.25  0.0  0.0
  2756.2  2756.2  0.0  0.0  0.0  0.0  0.0  -999.25  0.0  0.0
  2756.4  2756.3999  0.0  0.0  0.0  0.0  0.0  -999.25  0.0  0.0
  2756.6  2756.6001  0.0  0.0  0.0  0.0  0.0  -999.25  0.0  0.0
  2756.8  2756.8  0.0  0.0  0.0  0.0  0.0  -999.25  0.0  0.0
  2757.0  2757.0  0.0  0.0  0.0  0.0  0.0  -999.25  0.0  0.0
  2757.2  2757.2  0.0  0.0  0.0  0.0  0.0  -999.25  0.0  0.0
  2757.4  2757.3999  0.0  0.0  0.0  0.0  0.0  -999.25  0.0  0.0
  2757.6  2757.6001  0.0  0.0  0.0  0.0  0.0  -999.25  0.0  0.0
  2757.8  2757.8  0.0  0.0  0.0  0.0  0.0  -999.25  0.0  0.0
  2758.0  2758.0  0.0  0.0  0.0  0.0  0.0  -999.25  0.0  0.0
  2758.2  2758.2  0.0  0.0  0.0  0.0  0.0  -999.25  0.0  0.0
  2758.4  2758.3999  0.0  0.0  0.0  0.0  0.0  -999.25  0.0  0.0
  2758.6  2758.6001  0.0  0.0  0.0  0.0  0.0  -999.25  0.0  0.0
  2758.8  2758.8  0.0  0.0  0.0  0.0  0.0  -999.25  0.0  0.0
  2759.0  2759.0  0.0  0.0  0.0  0.0  0.0  -999.25  0.0  0.0
  2759.2  2759.2  0.0  0.0  0.0  0.0  0.0  -999.25  0.0  0.0
  2759.4  2759.3999  0.0  0.0  0.0  0.0  0.0  -999.25  0.0  0.0
  2759.6  2759.6001  0.0  0.0  0.0  0.0  0.0  -999.25  0.0  0.0
  2759.8  2759.8  0.0  0.0  0.0  0.0  0.0  -999.25  0.0  0.0
  2760.0  2760.0  0.0  0.0  0.0  0.0  0.0  -999.25  0.0  0.0
