~VERSION INFORMATION
 VERS. 2.0  : 
 WRAP. YES  :
~WELL INFORMATION
 LOC.X    :
 SRVC.X    :
 COMP.X    :
 WELL.X  100  :
 STOP.X  3220.00000000  :
 UWI.X  ccaf8416-11fb-4f20-a397-fdc46fcefdd8  :
 STRT.X  2736.00000000  :
 STEP.X  0.20000000  :
 API.X    :
 PROV.X    :
 DATE.X  Tuesday December 08 2009 10  :
 NULL.X  -999.250000  :
 FLD.X    :
~CURVE INFORMATION
 DEPTXXXX.X  :
 DEPTH.X  :
 RES.X  :
 LT.X  :
 ST.X  :
 Ro.X  :
 Kgl.X  :
 Kpr.X  :
 Kos.X  :
 Facies.X  :
~PARAMETERS INFORMATION
 P2.X    : X
 P1.X    : X
~A  DEPTXXXX  DEPTH  RES  LT  ST  Ro  Kgl  Kpr  Kos  Facies
# ...
  2946.8  2946.8  0.0  0.0  0.0  0.0  0.0  -999.25  0.0  0.0
  2947.0  2947.0  0.0  0.0  0.0  0.0  0.0  -999.25  0.0  0.0
  2947.2  2947.2  1.0  3.0  4.0  15.7  -999.25  0.30000001  60.599998  1.0
  2947.4  2947.3999  1.0  3.0  4.0  15.7  -999.25  0.30000001  60.599998  1.0
  2947.6  2947.6001  1.0  3.0  4.0  15.7  -999.25  0.30000001  60.599998  1.0
  2947.8  2947.8  1.0  3.0  4.0  15.7  -999.25  0.30000001  60.599998  1.0
  2948.0  2948.0  0.0  4.0  0.0  -999.25  -999.25  -999.25  0.0  0.0
  2948.2  2948.2  0.0  4.0  0.0  -999.25  -999.25  -999.25  0.0  0.0
  2948.4  2948.3999  0.0  0.0  0.0  0.0  0.0  -999.25  0.0  0.0
  2948.6  2948.6001  0.0  0.0  0.0  0.0  0.0  -999.25  0.0  0.0
  2948.8  2948.8  0.0  0.0  0.0  0.0  0.0  -999.25  0.0  0.0
  2949.0  2949.0  0.0  0.0  0.0  0.0  0.0  -999.25  0.0  0.0
  2949.2  2949.2  0.0  0.0  0.0  0.0  0.0  -999.25  0.0  0.0
  2949.4  2949.3999  0.0  0.0  0.0  0.0  0.0  -999.25  0.0  0.0
  2949.6  2949.6001  0.0  0.0  0.0  0.0  0.0  -999.25  0.0  0.0
  2949.8  2949.8  0.0  0.0  0.0  0.0  0.0  -999.25  0.0  0.0
  2950.0  2950.0  0.0  0.0  0.0  0.0  0.0  -999.25  0.0  0.0
  2950.2  2950.2  0.0  0.0  0.0  0.0  0.0  -999.25  0.0  0.0
  2950.4  2950.3999  0.0  0.0  0.0  0.0  0.0  -999.25  0.0  0.0
  2950.6  2950.6001  0.0  0.0  0.0  0.0  0.0  -999.25  0.0  0.0
  2950.8  2950.8  0.0  0.0  0.0  0.0  0.0  -999.25  0.0  0.0
  2951.0  2951.0  0.0  0.0  0.0  0.0  0.0  -999.25  0.0  0.0
  2951.2  2951.2  0.0  0.0  0.0  0.0  0.0  -999.25  0.0  0.0
  2951.4  2951.3999  0.0  0.0  0.0  0.0  0.0  -999.25  0.0  0.0
  2951.6  2951.6001  0.0  0.0  0.0  0.0  0.0  -999.25  0.0  0.0
  2951.8  2951.8  0.0  0.0  0.0  0.0  0.0  -999.25  0.0  0.0
  2952.0  2952.0  0.0  0.0  0.0  0.0  0.0  -999.25  0.0  0.0
  2952.2  2952.2  0.0  0.0  0.0  0.0  0.0  -999.25  0.0  0.0
  2952.4  2952.3999  0.0  0.0  0.0  0.0  0.0  -999.25  0.0  0.0
  2952.6  2952.6001  0.0  0.0  0.0  0.0  0.0  -999.25  0.0  0.0
  2952.8  2952.8  0.0  0.0  0.0  0.0  0.0  -999.25  0.0  0.0
  2953.0  2953.0  0.0  0.0  0.0  0.0  0.0  -999.25  0.0  0.0
  2953.2  2953.2  0.0  0.0  0.0  0.0  0.0  -999.25  0.0  0.0
  2953.4  2953.3999  0.0  0.0  0.0  0.0  0.0  -999.25  0.0  0.0
  2953.6  2953.6001  0.0  0.0  0.0  0.0  0.0  -999.25  0.0  0.0
  2953.8  2953.8  0.0  0.0  0.0  0.0  0.0  -999.25  0.0  0.0
  2954.0  2954.0  0.0  0.0  0.0  0.0  0.0  -999.25  0.0  0.0
  2954.2  2954.2  0.0  0.0  0.0  0.0  0.0  -999.25  0.0  0.0
  2954.4  2954.3999  0.0  0.0  0.0  0.0  0.0  -999.25  0.0  0.0
  2954.6  2954.6001  0.0  0.0  0.0  0.0  0.0  -999.25  0.0  0.0
  2954.8  2954.8  0.0  0.0  0.0  0.0  0.0  -999.25  0.0  0.0
  2955.0  2955.0  1.0  3.0  4.0  12.5  -999.25  1.7  64.199997  1.0
  2955.2  2955.2  1.0  3.0  4.0  12.5  -999.25  1.7  64.199997  1.0
  2955.4  2955.3999  1.0  3.0  4.0  12.5  -999.25  1.7  64.199997  1.0
  2955.6  2955.6001  1.0  3.0  4.0  12.5  -999.25  1.7  64.199997  1.0
  2955.8  2955.8  1.0  3.0  4.0  12.5  -999.25  1.7  64.199997  1.0
  2956.0  2956.0  0.0  1.0  0.0  -999.25  -999.25  -999.25  0.0  0.0
  2956.2  2956.2  0.0  1.0  0.0  -999.25  -999.25  -999.25  0.0  0.0
  2956.4  2956.3999  0.0  1.0  0.0  -999.25  -999.25  -999.25  0.0  0.0
  2956.6  2956.6001  0.0  1.0  0.0  -999.25  -999.25  -999.25  0.0  0.0
  2956.8  2956.8  0.0  1.0  0.0  -999.25  -999.25  -999.25  0.0  0.0
  2957.0  2957.0  0.0  1.0  0.0  -999.25  -999.25  -999.25  0.0  0.0
  2957.2  2957.2  0.0  1.0  0.0  -999.25  -999.25  -999.25  0.0  0.0
  2957.4  2957.3999  0.0  1.0  0.0  -999.25  -999.25  -999.25  0.0  0.0
  2957.6  2957.6001  0.0  1.0  0.0  -999.25  -999.25  -999.25  0.0  0.0
  2957.8  2957.8  0.0  1.0  0.0  -999.25  -999.25  -999.25  0.0  0.0
  2958.0  2958.0  0.0  1.0  0.0  -999.25  -999.25  -999.25  0.0  0.0
  2958.2  2958.2  0.0  1.0  0.0  -999.25  -999.25  -999.25  0.0  0.0
  2958.4  2958.3999  0.0  1.0  0.0  -999.25  -999.25  -999.25  0.0  0.0
  2958.6  2958.6001  0.0  1.0  0.0  -999.25  -999.25  -999.25  0.0  0.0
  2958.8  2958.8  0.0  1.0  0.0  -999.25  -999.25  -999.25  0.0  0.0
  2959.0  2959.0  0.0  1.0  0.0  -999.25  -999.25  -999.25  0.0  0.0
  2959.2  2959.2  0.0  1.0  0.0  -999.25  -999.25  -999.25  0.0  0.0
  2959.4  2959.3999  0.0  1.0  0.0  -999.25  -999.25  -999.25  0.0  0.0
  2959.6  2959.6001  0.0  1.0  0.0  -999.25  -999.25  -999.25  0.0  0.0
  2959.8  2959.8  0.0  1.0  0.0  -999.25  -999.25  -999.25  0.0  0.0
  2960.0  2960.0  1.0  3.0  4.0  19.0  -999.25  3.7  73.199997  1.0
  2960.2  2960.2  1.0  3.0  4.0  19.0  -999.25  3.7  73.199997  1.0
  2960.4  2960.3999  1.0  3.0  4.0  19.0  -999.25  3.7  73.199997  1.0
  2960.6  2960.6001  0.0  0.0  0.0  0.0  0.0  -999.25  0.0  0.0
  2960.8  2960.8  0.0  0.0  0.0  0.0  0.0  -999.25  0.0  0.0
  2961.0  2961.0  0.0  0.0  0.0  0.0  0.0  -999.25  0.0  0.0
  2961.2  2961.2  1.0  3.0  4.0  39.0  -999.25  2.0  79.0  1.0
  2961.4  2961.3999  1.0  3.0  4.0  39.0  -999.25  2.0  79.0  1.0
  2961.6  2961.6001  1.0  3.0  4.0  39.0  -999.25  2.0  79.0  1.0
  2961.8  2961.8  1.0  3.0  4.0  45.0  -999.25  2.0  80.0  1.0
  2962.0  2962.0  1.0  3.0  4.0  45.0  -999.25  2.0  80.0  1.0
  2962.2  2962.2  1.0  3.0  4.0  45.0  -999.25  2.0  80.0  1.0
  2962.4  2962.3999  0.0  0.0  0.0  0.0  0.0  -999.25  0.0  0.0
  2962.6  2962.6001  0.0  0.0  0.0  0.0  0.0  -999.25  0.0  0.0
  2962.8  2962.8  0.0  0.0  0.0  0.0  0.0  -999.25  0.0  0.0
  2963.0  2963.0  0.0  0.0  0.0  0.0  0.0  -999.25  0.0  0.0
  2963.2  2963.2  0.0  0.0  0.0  0.0  0.0  -999.25  0.0  0.0
  2963.4  2963.3999  0.0  0.0  0.0  0.0  0.0  -999.25  0.0  0.0
  2963.6  2963.6001  0.0  0.0  0.0  0.0  0.0  -999.25  0.0  0.0
  2963.8  2963.8  0.0  0.0  0.0  0.0  0.0  -999.25  0.0  0.0
  2964.0  2964.0  0.0  0.0  0.0  0.0  0.0  -999.25  0.0  0.0
  2964.2  2964.2  0.0  0.0  0.0  0.0  0.0  -999.25  0.0  0.0
  2964.4  2964.3999  0.0  0.0  0.0  0.0  0.0  -999.25  0.0  0.0
  2964.6  2964.6001  0.0  0.0  0.0  0.0  0.0  -999.25  0.0  0.0
  2964.8  2964.8  0.0  0.0  0.0  0.0  0.0  -999.25  0.0  0.0
  2965.0  2965.0  0.0  0.0  0.0  0.0  0.0  -999.25  0.0  0.0
  2965.2  2965.2  0.0  0.0  0.0  0.0  0.0  -999.25  0.0  0.0
  2965.4  2965.3999  0.0  0.0  0.0  0.0  0.0  -999.25  0.0  0.0
  2965.6  2965.6001  0.0  0.0  0.0  0.0  0.0  -999.25  0.0  0.0
  2965.8  2965.8  0.0  0.0  0.0  0.0  0.0  -999.25  0.0  0.0
  2966.0  2966.0  0.0  0.0  0.0  0.0  0.0  -999.25  0.0  0.0
  2966.2  2966.2  0.0  0.0  0.0  0.0  0.0  -999.25  0.0  0.0
  2966.4  2966.3999  0.0  0.0  0.0  0.0  0.0  -999.25  0.0  0.0
  2966.6  2966.6001  0.0  0.0  0.0  0.0  0.0  -999.25  0.0  0.0
  2966.8  2966.8  0.0  0.0  0.0  0.0  0.0  -999.25  0.0  0.0
  2967.0  2967.0  0.0  0.0  0.0  0.0  0.0  -999.25  0.0  0.0
  2967.2  2967.2  0.0  0.0  0.0  0.0  0.0  -999.25  0.0  0.0
  2967.4  2967.3999  0.0  0.0  0.0  0.0  0.0  -999.25  0.0  0.0
  2967.6  2967.6001  0.0  0.0  0.0  0.0  0.0  -999.25  0.0  0.0
  2967.8  2967.8  0.0  0.0  0.0  0.0  0.0  -999.25  0.0  0.0
  2968.0  2968.0  0.0  0.0  0.0  0.0  0.0  -999.25  0.0  0.0
  2968.2  2968.2  1.0  3.0  4.0  27.5  -999.25  1.6  75.199997  1.0
  2968.4  2968.3999  1.0  3.0  4.0  27.5  -999.25  1.6  75.199997  1.0
  2968.6  2968.6001  1.0  3.0  4.0  27.5  -999.25  1.6  75.199997  1.0
  2968.8  2968.8  1.0  3.0  4.0  27.5  -999.25  1.6  75.199997  1.0
  2969.0  2969.0  1.0  3.0  4.0  27.5  -999.25  1.6  75.199997  1.0
  2969.2  2969.2  0.0  0.0  0.0  0.0  0.0  -999.25  0.0  0.0
  2969.4  2969.3999  0.0  0.0  0.0  0.0  0.0  -999.25  0.0  0.0
  2969.6  2969.6001  1.0  3.0  4.0  31.799999  -999.25  1.4  76.400002  1.0
  2969.8  2969.8  1.0  3.0  4.0  31.799999  -999.25  1.4  76.400002  1.0
  2970.0  2970.0  1.0  3.0  4.0  31.799999  -999.25  1.4  76.400002  1.0
  2970.2  2970.2  1.0  3.0  4.0  31.799999  -999.25  1.4  76.400002  1.0
  2970.4  2970.3999  0.0  4.0  0.0  -999.25  -999.25  -999.25  0.0  0.0
  2970.6  2970.6001  0.0  4.0  0.0  -999.25  -999.25  -999.25  0.0  0.0
  2970.8  2970.8  0.0  4.0  0.0  -999.25  -999.25  -999.25  0.0  0.0
  2971.0  2971.0  0.0  4.0  0.0  -999.25  -999.25  -999.25  0.0  0.0
