~VERSION INFORMATION
 VERS. 2.0  : 
 WRAP. YES  :
~WELL INFORMATION
 LOC.X    :
 SRVC.X    :
 COMP.X    :
 WELL.X  100  :
 STOP.X  3220.00000000  :
 UWI.X  ccaf8416-11fb-4f20-a397-fdc46fcefdd8  :
 STRT.X  2736.00000000  :
 STEP.X  0.20000000  :
 API.X    :
 PROV.X    :
 DATE.X  Tuesday December 08 2009 10  :
 NULL.X  -999.250000  :
 FLD.X    :
~CURVE INFORMATION
 DEPTXXXX.X  :
 DEPTH.X  :
 RES.X  :
 LT.X  :
 ST.X  :
 Ro.X  :
 Kgl.X  :
 Kpr.X  :
 Kos.X  :
 Facies.X  :
~PARAMETERS INFORMATION
 P2.X    : X
 P1.X    : X
~A  DEPTXXXX  DEPTH  RES  LT  ST  Ro  Kgl  Kpr  Kos  Facies
# ...
  3017.2  3017.2  0.0  1.0  0.0  -999.25  -999.25  -999.25  0.0  0.0
  3017.4  3017.3999  0.0  1.0  0.0  -999.25  -999.25  -999.25  0.0  0.0
  3017.6  3017.6001  0.0  1.0  0.0  -999.25  -999.25  -999.25  0.0  0.0
  3017.8  3017.8  0.0  1.0  0.0  -999.25  -999.25  -999.25  0.0  0.0
  3018.0  3018.0  0.0  1.0  0.0  -999.25  -999.25  -999.25  0.0  0.0
  3018.2  3018.2  0.0  1.0  0.0  -999.25  -999.25  -999.25  0.0  0.0
  3018.4  3018.3999  0.0  1.0  0.0  -999.25  -999.25  -999.25  0.0  0.0
  3018.6  3018.6001  0.0  1.0  0.0  -999.25  -999.25  -999.25  0.0  0.0
  3018.8  3018.8  0.0  1.0  0.0  -999.25  -999.25  -999.25  0.0  0.0
  3019.0  3019.0  0.0  1.0  0.0  -999.25  -999.25  -999.25  0.0  0.0
  3019.2  3019.2  0.0  1.0  0.0  -999.25  -999.25  -999.25  0.0  0.0
  3019.4  3019.3999  0.0  1.0  0.0  -999.25  -999.25  -999.25  0.0  0.0
  3019.6  3019.6001  0.0  1.0  0.0  -999.25  -999.25  -999.25  0.0  0.0
  3019.8  3019.8  0.0  1.0  0.0  -999.25  -999.25  -999.25  0.0  0.0
  3020.0  3020.0  0.0  1.0  0.0  -999.25  -999.25  -999.25  0.0  0.0
  3020.2  3020.2  0.0  1.0  0.0  -999.25  -999.25  -999.25  0.0  0.0
  3020.4  3020.3999  0.0  1.0  0.0  -999.25  -999.25  -999.25  0.0  0.0
  3020.6  3020.6001  0.0  1.0  0.0  -999.25  -999.25  -999.25  0.0  0.0
  3020.8  3020.8  0.0  1.0  0.0  -999.25  -999.25  -999.25  0.0  0.0
  3021.0  3021.0  0.0  1.0  0.0  -999.25  -999.25  -999.25  0.0  0.0
  3021.2  3021.2  0.0  1.0  0.0  -999.25  -999.25  -999.25  0.0  0.0
  3021.4  3021.3999  0.0  1.0  0.0  -999.25  -999.25  -999.25  0.0  0.0
  3021.6  3021.6001  0.0  1.0  0.0  -999.25  -999.25  -999.25  0.0  0.0
  3021.8  3021.8  0.0  1.0  0.0  -999.25  -999.25  -999.25  0.0  0.0
  3022.0  3022.0  0.0  1.0  0.0  -999.25  -999.25  -999.25  0.0  0.0
  3022.2  3022.2  0.0  1.0  0.0  -999.25  -999.25  -999.25  0.0  0.0
  3022.4  3022.3999  0.0  1.0  0.0  -999.25  -999.25  -999.25  0.0  0.0
  3022.6  3022.6001  0.0  1.0  0.0  -999.25  -999.25  -999.25  0.0  0.0
  3022.8  3022.8  0.0  1.0  0.0  -999.25  -999.25  -999.25  0.0  0.0
  3023.0  3023.0  0.0  1.0  0.0  -999.25  -999.25  -999.25  0.0  0.0
  3023.2  3023.2  0.0  1.0  0.0  -999.25  -999.25  -999.25  0.0  0.0
  3023.4  3023.3999  0.0  1.0  0.0  -999.25  -999.25  -999.25  0.0  0.0
  3023.6  3023.6001  0.0  1.0  0.0  -999.25  -999.25  -999.25  0.0  0.0
  3023.8  3023.8  0.0  1.0  0.0  -999.25  -999.25  -999.25  0.0  0.0
  3024.0  3024.0  0.0  1.0  0.0  -999.25  -999.25  -999.25  0.0  0.0
  3024.2  3024.2  0.0  1.0  0.0  -999.25  -999.25  -999.25  0.0  0.0
  3024.4  3024.3999  0.0  1.0  0.0  -999.25  -999.25  -999.25  0.0  0.0
  3024.6  3024.6001  0.0  1.0  0.0  -999.25  -999.25  -999.25  0.0  0.0
  3024.8  3024.8  0.0  1.0  0.0  -999.25  -999.25  -999.25  0.0  0.0
  3025.0  3025.0  0.0  1.0  0.0  -999.25  -999.25  -999.25  0.0  0.0
  3025.2  3025.2  0.0  1.0  0.0  -999.25  -999.25  -999.25  0.0  0.0
  3025.4  3025.3999  0.0  1.0  0.0  -999.25  -999.25  -999.25  0.0  0.0
  3025.6  3025.6001  0.0  1.0  0.0  -999.25  -999.25  -999.25  0.0  0.0
  3025.8  3025.8  0.0  1.0  0.0  -999.25  -999.25  -999.25  0.0  0.0
  3026.0  3026.0  0.0  1.0  0.0  -999.25  -999.25  -999.25  0.0  0.0
  3026.2  3026.2  0.0  1.0  0.0  -999.25  -999.25  -999.25  0.0  0.0
  3026.4  3026.3999  0.0  1.0  0.0  -999.25  -999.25  -999.25  0.0  0.0
  3026.6  3026.6001  0.0  1.0  0.0  -999.25  -999.25  -999.25  0.0  0.0
  3026.8  3026.8  0.0  1.0  0.0  -999.25  -999.25  -999.25  0.0  0.0
  3027.0  3027.0  0.0  1.0  0.0  -999.25  -999.25  -999.25  0.0  0.0
  3027.2  3027.2  0.0  1.0  0.0  -999.25  -999.25  -999.25  0.0  0.0
  3027.4  3027.3999  0.0  1.0  0.0  -999.25  -999.25  -999.25  0.0  0.0
  3027.6  3027.6001  0.0  1.0  0.0  -999.25  -999.25  -999.25  0.0  0.0
  3027.8  3027.8  0.0  1.0  0.0  -999.25  -999.25  -999.25  0.0  0.0
  3028.0  3028.0  0.0  1.0  0.0  -999.25  -999.25  -999.25  0.0  0.0
  3028.2  3028.2  0.0  1.0  0.0  -999.25  -999.25  -999.25  0.0  0.0
  3028.4  3028.3999  0.0  1.0  0.0  -999.25  -999.25  -999.25  0.0  0.0
  3028.6  3028.6001  0.0  1.0  0.0  -999.25  -999.25  -999.25  0.0  0.0
  3028.8  3028.8  0.0  1.0  0.0  -999.25  -999.25  -999.25  0.0  0.0
  3029.0  3029.0  0.0  1.0  0.0  -999.25  -999.25  -999.25  0.0  0.0
  3029.2  3029.2  0.0  1.0  0.0  -999.25  -999.25  -999.25  0.0  0.0
  3029.4  3029.3999  0.0  1.0  0.0  -999.25  -999.25  -999.25  0.0  0.0
  3029.6  3029.6001  0.0  1.0  0.0  -999.25  -999.25  -999.25  0.0  0.0
  3029.8  3029.8  0.0  1.0  0.0  -999.25  -999.25  -999.25  0.0  0.0
  3030.0  3030.0  0.0  1.0  0.0  -999.25  -999.25  -999.25  0.0  0.0
  3030.2  3030.2  0.0  1.0  0.0  -999.25  -999.25  -999.25  0.0  0.0
  3030.4  3030.3999  0.0  1.0  0.0  -999.25  -999.25  -999.25  0.0  0.0
  3030.6  3030.6001  0.0  1.0  0.0  -999.25  -999.25  -999.25  0.0  0.0
  3030.8  3030.8  0.0  1.0  0.0  -999.25  -999.25  -999.25  0.0  0.0
  3031.0  3031.0  0.0  1.0  0.0  -999.25  -999.25  -999.25  0.0  0.0
  3031.2  3031.2  0.0  1.0  0.0  -999.25  -999.25  -999.25  0.0  0.0
  3031.4  3031.3999  0.0  1.0  0.0  -999.25  -999.25  -999.25  0.0  0.0
  3031.6  3031.6001  0.0  1.0  0.0  -999.25  -999.25  -999.25  0.0  0.0
  3031.8  3031.8  0.0  1.0  0.0  -999.25  -999.25  -999.25  0.0  0.0
  3032.0  3032.0  0.0  1.0  0.0  -999.25  -999.25  -999.25  0.0  0.0
  3032.2  3032.2  0.0  1.0  0.0  -999.25  -999.25  -999.25  0.0  0.0
  3032.4  3032.3999  0.0  1.0  0.0  -999.25  -999.25  -999.25  0.0  0.0
  3032.6  3032.6001  0.0  1.0  0.0  -999.25  -999.25  -999.25  0.0  0.0
  3032.8  3032.8  0.0  1.0  0.0  -999.25  -999.25  -999.25  0.0  0.0
  3033.0  3033.0  0.0  1.0  0.0  -999.25  -999.25  -999.25  0.0  0.0
  3033.2  3033.2  0.0  1.0  0.0  -999.25  -999.25  -999.25  0.0  0.0
  3033.4  3033.3999  0.0  1.0  0.0  -999.25  -999.25  -999.25  0.0  0.0
  3033.6  3033.6001  0.0  1.0  0.0  -999.25  -999.25  -999.25  0.0  0.0
  3033.8  3033.8  0.0  1.0  0.0  -999.25  -999.25  -999.25  0.0  0.0
  3034.0  3034.0  0.0  1.0  0.0  -999.25  -999.25  -999.25  0.0  0.0
  3034.2  3034.2  0.0  1.0  0.0  -999.25  -999.25  -999.25  0.0  0.0
  3034.4  3034.3999  0.0  1.0  0.0  -999.25  -999.25  -999.25  0.0  0.0
  3034.6  3034.6001  0.0  1.0  0.0  -999.25  -999.25  -999.25  0.0  0.0
  3034.8  3034.8  0.0  1.0  0.0  -999.25  -999.25  -999.25  0.0  0.0
  3035.0  3035.0  0.0  1.0  0.0  -999.25  -999.25  -999.25  0.0  0.0
  3035.2  3035.2  0.0  1.0  0.0  -999.25  -999.25  -999.25  0.0  0.0
  3035.4  3035.3999  0.0  1.0  0.0  -999.25  -999.25  -999.25  0.0  0.0
  3035.6  3035.6001  0.0  1.0  0.0  -999.25  -999.25  -999.25  0.0  0.0
  3035.8  3035.8  0.0  1.0  0.0  -999.25  -999.25  -999.25  0.0  0.0
  3036.0  3036.0  0.0  1.0  0.0  -999.25  -999.25  -999.25  0.0  0.0
  3036.2  3036.2  0.0  1.0  0.0  -999.25  -999.25  -999.25  0.0  0.0
  3036.4  3036.3999  0.0  1.0  0.0  -999.25  -999.25  -999.25  0.0  0.0
  3036.6  3036.6001  0.0  1.0  0.0  -999.25  -999.25  -999.25  0.0  0.0
  3036.8  3036.8  0.0  1.0  0.0  -999.25  -999.25  -999.25  0.0  0.0
  3037.0  3037.0  0.0  1.0  0.0  -999.25  -999.25  -999.25  0.0  0.0
  3037.2  3037.2  0.0  1.0  0.0  -999.25  -999.25  -999.25  0.0  0.0
  3037.4  3037.3999  0.0  1.0  0.0  -999.25  -999.25  -999.25  0.0  0.0
  3037.6  3037.6001  0.0  1.0  0.0  -999.25  -999.25  -999.25  0.0  0.0
  3037.8  3037.8  0.0  1.0  0.0  -999.25  -999.25  -999.25  0.0  0.0
  3038.0  3038.0  0.0  1.0  0.0  -999.25  -999.25  -999.25  0.0  0.0
  3038.2  3038.2  0.0  1.0  0.0  -999.25  -999.25  -999.25  0.0  0.0
  3038.4  3038.3999  0.0  1.0  0.0  -999.25  -999.25  -999.25  0.0  0.0
  3038.6  3038.6001  0.0  1.0  0.0  -999.25  -999.25  -999.25  0.0  0.0
  3038.8  3038.8  0.0  1.0  0.0  -999.25  -999.25  -999.25  0.0  0.0
  3039.0  3039.0  0.0  1.0  0.0  -999.25  -999.25  -999.25  0.0  0.0
  3039.2  3039.2  0.0  1.0  0.0  -999.25  -999.25  -999.25  0.0  0.0
  3039.4  3039.3999  0.0  1.0  0.0  -999.25  -999.25  -999.25  0.0  0.0
  3039.6  3039.6001  0.0  1.0  0.0  -999.25  -999.25  -999.25  0.0  0.0
  3039.8  3039.8  0.0  1.0  0.0  -999.25  -999.25  -999.25  0.0  0.0
