~VERSION INFORMATION
 VERS. 2.0  : 
 WRAP. YES  :
~WELL INFORMATION
 LOC.X    :
 SRVC.X    :
 COMP.X    :
 WELL.X  100  :
 STOP.X  3220.00000000  :
 UWI.X  ccaf8416-11fb-4f20-a397-fdc46fcefdd8  :
 STRT.X  2736.00000000  :
 STEP.X  0.20000000  :
 API.X    :
 PROV.X    :
 DATE.X  Tuesday December 08 2009 10  :
 NULL.X  -999.250000  :
 FLD.X    :
~CURVE INFORMATION
 DEPTXXXX.X  :
 DEPTH.X  :
 RES.X  :
 LT.X  :
 ST.X  :
 Ro.X  :
 Kgl.X  :
 Kpr.X  :
 Kos.X  :
 Facies.X  :
~PARAMETERS INFORMATION
 P2.X    : X
 P1.X    : X
~A  DEPTXXXX  DEPTH  RES  LT  ST  Ro  Kgl  Kpr  Kos  Facies
# ...
  3133.2  3133.2  0.0  1.0  0.0  -999.25  -999.25  -999.25  0.0  0.0
  3133.4  3133.3999  0.0  1.0  0.0  -999.25  -999.25  -999.25  0.0  0.0
  3133.6  3133.6001  0.0  1.0  0.0  -999.25  -999.25  -999.25  0.0  0.0
  3133.8  3133.8  0.0  1.0  0.0  -999.25  -999.25  -999.25  0.0  0.0
  3134.0  3134.0  0.0  1.0  0.0  -999.25  -999.25  -999.25  0.0  0.0
  3134.2  3134.2  0.0  1.0  0.0  -999.25  -999.25  -999.25  0.0  0.0
  3134.4  3134.3999  0.0  1.0  0.0  -999.25  -999.25  -999.25  0.0  0.0
  3134.6  3134.6001  0.0  1.0  0.0  -999.25  -999.25  -999.25  0.0  0.0
  3134.8  3134.8  0.0  1.0  0.0  -999.25  -999.25  -999.25  0.0  0.0
  3135.0  3135.0  0.0  1.0  0.0  -999.25  -999.25  -999.25  0.0  0.0
  3135.2  3135.2  0.0  1.0  0.0  -999.25  -999.25  -999.25  0.0  0.0
  3135.4  3135.3999  0.0  1.0  0.0  -999.25  -999.25  -999.25  0.0  0.0
  3135.6  3135.6001  0.0  1.0  0.0  -999.25  -999.25  -999.25  0.0  0.0
  3135.8  3135.8  0.0  1.0  0.0  -999.25  -999.25  -999.25  0.0  0.0
  3136.0  3136.0  0.0  1.0  0.0  -999.25  -999.25  -999.25  0.0  0.0
  3136.2  3136.2  0.0  1.0  0.0  -999.25  -999.25  -999.25  0.0  0.0
  3136.4  3136.3999  0.0  1.0  0.0  -999.25  -999.25  -999.25  0.0  0.0
  3136.6  3136.6001  0.0  1.0  0.0  -999.25  -999.25  -999.25  0.0  0.0
  3136.8  3136.8  0.0  1.0  0.0  -999.25  -999.25  -999.25  0.0  0.0
  3137.0  3137.0  0.0  1.0  0.0  -999.25  -999.25  -999.25  0.0  0.0
  3137.2  3137.2  0.0  1.0  0.0  -999.25  -999.25  -999.25  0.0  0.0
  3137.4  3137.3999  0.0  1.0  0.0  -999.25  -999.25  -999.25  0.0  0.0
  3137.6  3137.6001  0.0  1.0  0.0  -999.25  -999.25  -999.25  0.0  0.0
  3137.8  3137.8  0.0  1.0  0.0  -999.25  -999.25  -999.25  0.0  0.0
  3138.0  3138.0  0.0  1.0  0.0  -999.25  -999.25  -999.25  0.0  0.0
  3138.2  3138.2  0.0  1.0  0.0  -999.25  -999.25  -999.25  0.0  0.0
  3138.4  3138.3999  0.0  1.0  0.0  -999.25  -999.25  -999.25  0.0  0.0
  3138.6  3138.6001  0.0  1.0  0.0  -999.25  -999.25  -999.25  0.0  0.0
  3138.8  3138.8  0.0  1.0  0.0  -999.25  -999.25  -999.25  0.0  0.0
  3139.0  3139.0  0.0  1.0  0.0  -999.25  -999.25  -999.25  0.0  0.0
  3139.2  3139.2  0.0  1.0  0.0  -999.25  -999.25  -999.25  0.0  0.0
  3139.4  3139.3999  0.0  1.0  0.0  -999.25  -999.25  -999.25  0.0  0.0
  3139.6  3139.6001  0.0  1.0  0.0  -999.25  -999.25  -999.25  0.0  0.0
  3139.8  3139.8  0.0  1.0  0.0  -999.25  -999.25  -999.25  0.0  0.0
  3140.0  3140.0  0.0  1.0  0.0  -999.25  -999.25  -999.25  0.0  0.0
  3140.2  3140.2  0.0  1.0  0.0  -999.25  -999.25  -999.25  0.0  0.0
  3140.4  3140.3999  0.0  1.0  0.0  -999.25  -999.25  -999.25  0.0  0.0
  3140.6  3140.6001  0.0  1.0  0.0  -999.25  -999.25  -999.25  0.0  0.0
  3140.8  3140.8  0.0  1.0  0.0  -999.25  -999.25  -999.25  0.0  0.0
  3141.0  3141.0  0.0  1.0  0.0  -999.25  -999.25  -999.25  0.0  0.0
  3141.2  3141.2  0.0  1.0  0.0  -999.25  -999.25  -999.25  0.0  0.0
  3141.4  3141.3999  0.0  1.0  0.0  -999.25  -999.25  -999.25  0.0  0.0
  3141.6  3141.6001  0.0  1.0  0.0  -999.25  -999.25  -999.25  0.0  0.0
  3141.8  3141.8  0.0  1.0  0.0  -999.25  -999.25  -999.25  0.0  0.0
  3142.0  3142.0  0.0  1.0  0.0  -999.25  -999.25  -999.25  0.0  0.0
  3142.2  3142.2  0.0  1.0  0.0  -999.25  -999.25  -999.25  0.0  0.0
  3142.4  3142.3999  0.0  1.0  0.0  -999.25  -999.25  -999.25  0.0  0.0
  3142.6  3142.6001  0.0  1.0  0.0  -999.25  -999.25  -999.25  0.0  0.0
  3142.8  3142.8  0.0  1.0  0.0  -999.25  -999.25  -999.25  0.0  0.0
  3143.0  3143.0  0.0  1.0  0.0  -999.25  -999.25  -999.25  0.0  0.0
  3143.2  3143.2  0.0  1.0  0.0  -999.25  -999.25  -999.25  0.0  0.0
  3143.4  3143.3999  0.0  1.0  0.0  -999.25  -999.25  -999.25  0.0  0.0
  3143.6  3143.6001  0.0  1.0  0.0  -999.25  -999.25  -999.25  0.0  0.0
  3143.8  3143.8  0.0  1.0  0.0  -999.25  -999.25  -999.25  0.0  0.0
  3144.0  3144.0  0.0  1.0  0.0  -999.25  -999.25  -999.25  0.0  0.0
  3144.2  3144.2  0.0  1.0  0.0  -999.25  -999.25  -999.25  0.0  0.0
  3144.4  3144.3999  0.0  1.0  0.0  -999.25  -999.25  -999.25  0.0  0.0
  3144.6  3144.6001  0.0  1.0  0.0  -999.25  -999.25  -999.25  0.0  0.0
  3144.8  3144.8  0.0  1.0  0.0  -999.25  -999.25  -999.25  0.0  0.0
  3145.0  3145.0  0.0  1.0  0.0  -999.25  -999.25  -999.25  0.0  0.0
  3145.2  3145.2  0.0  1.0  0.0  -999.25  -999.25  -999.25  0.0  0.0
  3145.4  3145.3999  0.0  1.0  0.0  -999.25  -999.25  -999.25  0.0  0.0
  3145.6  3145.6001  0.0  1.0  0.0  -999.25  -999.25  -999.25  0.0  0.0
  3145.8  3145.8  0.0  1.0  0.0  -999.25  -999.25  -999.25  0.0  0.0
  3146.0  3146.0  0.0  1.0  0.0  -999.25  -999.25  -999.25  0.0  0.0
  3146.2  3146.2  0.0  1.0  0.0  -999.25  -999.25  -999.25  0.0  0.0
  3146.4  3146.3999  0.0  1.0  0.0  -999.25  -999.25  -999.25  0.0  0.0
  3146.6  3146.6001  0.0  1.0  0.0  -999.25  -999.25  -999.25  0.0  0.0
  3146.8  3146.8  0.0  1.0  0.0  -999.25  -999.25  -999.25  0.0  0.0
  3147.0  3147.0  0.0  1.0  0.0  -999.25  -999.25  -999.25  0.0  0.0
  3147.2  3147.2  0.0  1.0  0.0  -999.25  -999.25  -999.25  0.0  0.0
  3147.4  3147.3999  0.0  1.0  0.0  -999.25  -999.25  -999.25  0.0  0.0
  3147.6  3147.6001  0.0  1.0  0.0  -999.25  -999.25  -999.25  0.0  0.0
  3147.8  3147.8  0.0  1.0  0.0  -999.25  -999.25  -999.25  0.0  0.0
  3148.0  3148.0  0.0  1.0  0.0  -999.25  -999.25  -999.25  0.0  0.0
  3148.2  3148.2  0.0  1.0  0.0  -999.25  -999.25  -999.25  0.0  0.0
  3148.4  3148.3999  0.0  1.0  0.0  -999.25  -999.25  -999.25  0.0  0.0
  3148.6  3148.6001  0.0  1.0  0.0  -999.25  -999.25  -999.25  0.0  0.0
  3148.8  3148.8  0.0  1.0  0.0  -999.25  -999.25  -999.25  0.0  0.0
  3149.0  3149.0  0.0  1.0  0.0  -999.25  -999.25  -999.25  0.0  0.0
  3149.2  3149.2  0.0  1.0  0.0  -999.25  -999.25  -999.25  0.0  0.0
  3149.4  3149.3999  0.0  1.0  0.0  -999.25  -999.25  -999.25  0.0  0.0
  3149.6  3149.6001  0.0  1.0  0.0  -999.25  -999.25  -999.25  0.0  0.0
  3149.8  3149.8  0.0  1.0  0.0  -999.25  -999.25  -999.25  0.0  0.0
  3150.0  3150.0  0.0  1.0  0.0  -999.25  -999.25  -999.25  0.0  0.0
  3150.2  3150.2  0.0  1.0  0.0  -999.25  -999.25  -999.25  0.0  0.0
  3150.4  3150.3999  0.0  1.0  0.0  -999.25  -999.25  -999.25  0.0  0.0
  3150.6  3150.6001  0.0  1.0  0.0  -999.25  -999.25  -999.25  0.0  0.0
  3150.8  3150.8  0.0  1.0  0.0  -999.25  -999.25  -999.25  0.0  0.0
  3151.0  3151.0  0.0  1.0  0.0  -999.25  -999.25  -999.25  0.0  0.0
  3151.2  3151.2  0.0  1.0  0.0  -999.25  -999.25  -999.25  0.0  0.0
  3151.4  3151.3999  0.0  1.0  0.0  -999.25  -999.25  -999.25  0.0  0.0
  3151.6  3151.6001  0.0  1.0  0.0  -999.25  -999.25  -999.25  0.0  0.0
  3151.8  3151.8  0.0  1.0  0.0  -999.25  -999.25  -999.25  0.0  0.0
  3152.0  3152.0  0.0  1.0  0.0  -999.25  -999.25  -999.25  0.0  0.0
  3152.2  3152.2  0.0  1.0  0.0  -999.25  -999.25  -999.25  0.0  0.0
  3152.4  3152.3999  0.0  1.0  0.0  -999.25  -999.25  -999.25  0.0  0.0
  3152.6  3152.6001  0.0  1.0  0.0  -999.25  -999.25  -999.25  0.0  0.0
  3152.8  3152.8  0.0  1.0  0.0  -999.25  -999.25  -999.25  0.0  0.0
  3153.0  3153.0  0.0  1.0  0.0  -999.25  -999.25  -999.25  0.0  0.0
  3153.2  3153.2  0.0  1.0  0.0  -999.25  -999.25  -999.25  0.0  0.0
  3153.4  3153.3999  0.0  1.0  0.0  -999.25  -999.25  -999.25  0.0  0.0
  3153.6  3153.6001  0.0  1.0  0.0  -999.25  -999.25  -999.25  0.0  0.0
  3153.8  3153.8  0.0  1.0  0.0  -999.25  -999.25  -999.25  0.0  0.0
  3154.0  3154.0  0.0  1.0  0.0  -999.25  -999.25  -999.25  0.0  0.0
  3154.2  3154.2  0.0  1.0  0.0  -999.25  -999.25  -999.25  0.0  0.0
  3154.4  3154.3999  0.0  1.0  0.0  -999.25  -999.25  -999.25  0.0  0.0
  3154.6  3154.6001  0.0  1.0  0.0  -999.25  -999.25  -999.25  0.0  0.0
  3154.8  3154.8  0.0  1.0  0.0  -999.25  -999.25  -999.25  0.0  0.0
  3155.0  3155.0  0.0  1.0  0.0  -999.25  -999.25  -999.25  0.0  0.0
  3155.2  3155.2  0.0  1.0  0.0  -999.25  -999.25  -999.25  0.0  0.0
  3155.4  3155.3999  0.0  1.0  0.0  -999.25  -999.25  -999.25  0.0  0.0
  3155.6  3155.6001  0.0  1.0  0.0  -999.25  -999.25  -999.25  0.0  0.0
  3155.8  3155.8  0.0  1.0  0.0  -999.25  -999.25  -999.25  0.0  0.0
