~VERSION INFORMATION
 VERS. 2.0  : 
 WRAP. YES  :
~WELL INFORMATION
 LOC.X    :
 SRVC.X    :
 COMP.X    :
 WELL.X  100  :
 STOP.X  3220.00000000  :
 UWI.X  ccaf8416-11fb-4f20-a397-fdc46fcefdd8  :
 STRT.X  2736.00000000  :
 STEP.X  0.20000000  :
 API.X    :
 PROV.X    :
 DATE.X  Tuesday December 08 2009 10  :
 NULL.X  -999.250000  :
 FLD.X    :
~CURVE INFORMATION
 DEPTXXXX.X  :
 DEPTH.X  :
 RES.X  :
 LT.X  :
 ST.X  :
 Ro.X  :
 Kgl.X  :
 Kpr.X  :
 Kos.X  :
 Facies.X  :
~PARAMETERS INFORMATION
 P2.X    : X
 P1.X    : X
~A  DEPTXXXX  DEPTH  RES  LT  ST  Ro  Kgl  Kpr  Kos  Facies
# ...
  3087.4  3087.3999  0.0  1.0  0.0  -999.25  -999.25  -999.25  0.0  0.0
  3087.6  3087.6001  0.0  1.0  0.0  -999.25  -999.25  -999.25  0.0  0.0
  3087.8  3087.8  0.0  1.0  0.0  -999.25  -999.25  -999.25  0.0  0.0
  3088.0  3088.0  0.0  1.0  0.0  -999.25  -999.25  -999.25  0.0  0.0
  3088.2  3088.2  0.0  1.0  0.0  -999.25  -999.25  -999.25  0.0  0.0
  3088.4  3088.3999  0.0  1.0  0.0  -999.25  -999.25  -999.25  0.0  0.0
  3088.6  3088.6001  0.0  1.0  0.0  -999.25  -999.25  -999.25  0.0  0.0
  3088.8  3088.8  0.0  1.0  0.0  -999.25  -999.25  -999.25  0.0  0.0
  3089.0  3089.0  0.0  1.0  0.0  -999.25  -999.25  -999.25  0.0  0.0
  3089.2  3089.2  0.0  1.0  0.0  -999.25  -999.25  -999.25  0.0  0.0
  3089.4  3089.3999  0.0  1.0  0.0  -999.25  -999.25  -999.25  0.0  0.0
  3089.6  3089.6001  0.0  1.0  0.0  -999.25  -999.25  -999.25  0.0  0.0
  3089.8  3089.8  0.0  1.0  0.0  -999.25  -999.25  -999.25  0.0  0.0
  3090.0  3090.0  0.0  1.0  0.0  -999.25  -999.25  -999.25  0.0  0.0
  3090.2  3090.2  0.0  1.0  0.0  -999.25  -999.25  -999.25  0.0  0.0
  3090.4  3090.3999  0.0  1.0  0.0  -999.25  -999.25  -999.25  0.0  0.0
  3090.6  3090.6001  0.0  1.0  0.0  -999.25  -999.25  -999.25  0.0  0.0
  3090.8  3090.8  0.0  1.0  0.0  -999.25  -999.25  -999.25  0.0  0.0
  3091.0  3091.0  0.0  1.0  0.0  -999.25  -999.25  -999.25  0.0  0.0
  3091.2  3091.2  0.0  1.0  0.0  -999.25  -999.25  -999.25  0.0  0.0
  3091.4  3091.3999  0.0  1.0  0.0  -999.25  -999.25  -999.25  0.0  0.0
  3091.6  3091.6001  0.0  1.0  0.0  -999.25  -999.25  -999.25  0.0  0.0
  3091.8  3091.8  0.0  1.0  0.0  -999.25  -999.25  -999.25  0.0  0.0
  3092.0  3092.0  0.0  1.0  0.0  -999.25  -999.25  -999.25  0.0  0.0
  3092.2  3092.2  0.0  1.0  0.0  -999.25  -999.25  -999.25  0.0  0.0
  3092.4  3092.3999  0.0  1.0  0.0  -999.25  -999.25  -999.25  0.0  0.0
  3092.6  3092.6001  0.0  1.0  0.0  -999.25  -999.25  -999.25  0.0  0.0
  3092.8  3092.8  0.0  1.0  0.0  -999.25  -999.25  -999.25  0.0  0.0
  3093.0  3093.0  0.0  1.0  0.0  -999.25  -999.25  -999.25  0.0  0.0
  3093.2  3093.2  0.0  1.0  0.0  -999.25  -999.25  -999.25  0.0  0.0
  3093.4  3093.3999  0.0  1.0  0.0  -999.25  -999.25  -999.25  0.0  0.0
  3093.6  3093.6001  0.0  1.0  0.0  -999.25  -999.25  -999.25  0.0  0.0
  3093.8  3093.8  0.0  1.0  0.0  -999.25  -999.25  -999.25  0.0  0.0
  3094.0  3094.0  0.0  1.0  0.0  -999.25  -999.25  -999.25  0.0  0.0
  3094.2  3094.2  0.0  1.0  0.0  -999.25  -999.25  -999.25  0.0  0.0
  3094.4  3094.3999  0.0  1.0  0.0  -999.25  -999.25  -999.25  0.0  0.0
  3094.6  3094.6001  0.0  1.0  0.0  -999.25  -999.25  -999.25  0.0  0.0
  3094.8  3094.8  0.0  1.0  0.0  -999.25  -999.25  -999.25  0.0  0.0
  3095.0  3095.0  0.0  1.0  0.0  -999.25  -999.25  -999.25  0.0  0.0
  3095.2  3095.2  0.0  1.0  0.0  -999.25  -999.25  -999.25  0.0  0.0
  3095.4  3095.3999  0.0  1.0  0.0  -999.25  -999.25  -999.25  0.0  0.0
  3095.6  3095.6001  0.0  1.0  0.0  -999.25  -999.25  -999.25  0.0  0.0
  3095.8  3095.8  0.0  1.0  0.0  -999.25  -999.25  -999.25  0.0  0.0
  3096.0  3096.0  0.0  1.0  0.0  -999.25  -999.25  -999.25  0.0  0.0
  3096.2  3096.2  0.0  1.0  0.0  -999.25  -999.25  -999.25  0.0  0.0
  3096.4  3096.3999  0.0  1.0  0.0  -999.25  -999.25  -999.25  0.0  0.0
  3096.6  3096.6001  0.0  1.0  0.0  -999.25  -999.25  -999.25  0.0  0.0
  3096.8  3096.8  0.0  1.0  0.0  -999.25  -999.25  -999.25  0.0  0.0
  3097.0  3097.0  0.0  1.0  0.0  -999.25  -999.25  -999.25  0.0  0.0
  3097.2  3097.2  1.0  3.0  4.0  9.6999998  -999.25  0.60000002  53.099998  1.0
  3097.4  3097.3999  1.0  3.0  4.0  9.6999998  -999.25  0.60000002  53.099998  1.0
  3097.6  3097.6001  1.0  3.0  4.0  9.6999998  -999.25  0.80000001  54.5  1.0
  3097.8  3097.8  1.0  3.0  4.0  9.6999998  -999.25  0.80000001  54.5  1.0
  3098.0  3098.0  1.0  3.0  4.0  11.0  -999.25  1.3  60.299999  1.0
  3098.2  3098.2  1.0  3.0  4.0  11.0  -999.25  1.3  60.299999  1.0
  3098.4  3098.3999  1.0  3.0  4.0  12.5  -999.25  1.3  63.200001  1.0
  3098.6  3098.6001  1.0  3.0  4.0  12.5  -999.25  1.3  63.200001  1.0
  3098.8  3098.8  1.0  3.0  4.0  12.5  -999.25  1.3  63.200001  1.0
  3099.0  3099.0  0.0  0.0  0.0  0.0  0.0  -999.25  0.0  0.0
  3099.2  3099.2  0.0  0.0  0.0  0.0  0.0  -999.25  0.0  0.0
  3099.4  3099.3999  0.0  0.0  0.0  0.0  0.0  -999.25  0.0  0.0
  3099.6  3099.6001  0.0  0.0  0.0  0.0  0.0  -999.25  0.0  0.0
  3099.8  3099.8  0.0  0.0  0.0  0.0  0.0  -999.25  0.0  0.0
  3100.0  3100.0  0.0  0.0  0.0  0.0  0.0  -999.25  0.0  0.0
  3100.2  3100.2  1.0  3.0  4.0  12.5  -999.25  1.5  63.799999  1.0
  3100.4  3100.3999  1.0  3.0  4.0  12.5  -999.25  1.5  63.799999  1.0
  3100.6  3100.6001  1.0  3.0  4.0  12.5  -999.25  1.5  63.799999  1.0
  3100.8  3100.8  1.0  3.0  4.0  12.5  -999.25  1.5  63.799999  1.0
  3101.0  3101.0  1.0  3.0  4.0  12.5  -999.25  1.5  63.799999  1.0
  3101.2  3101.2  1.0  3.0  4.0  12.5  -999.25  1.5  63.799999  1.0
  3101.4  3101.3999  0.0  0.0  0.0  0.0  0.0  -999.25  0.0  0.0
  3101.6  3101.6001  0.0  0.0  0.0  0.0  0.0  -999.25  0.0  0.0
  3101.8  3101.8  0.0  0.0  0.0  0.0  0.0  -999.25  0.0  0.0
  3102.0  3102.0  1.0  3.0  4.0  15.7  -999.25  2.9000001  70.199997  1.0
  3102.2  3102.2  1.0  3.0  4.0  15.7  -999.25  2.9000001  70.199997  1.0
  3102.4  3102.3999  1.0  3.0  4.0  15.7  -999.25  2.9000001  70.199997  1.0
  3102.6  3102.6001  1.0  3.0  4.0  15.7  -999.25  2.9000001  70.199997  1.0
  3102.8  3102.8  1.0  3.0  4.0  15.7  -999.25  2.9000001  70.199997  1.0
  3103.0  3103.0  0.0  0.0  0.0  0.0  0.0  -999.25  0.0  0.0
  3103.2  3103.2  0.0  0.0  0.0  0.0  0.0  -999.25  0.0  0.0
  3103.4  3103.3999  0.0  0.0  0.0  0.0  0.0  -999.25  0.0  0.0
  3103.6  3103.6001  1.0  3.0  4.0  13.5  -999.25  1.5  65.5  1.0
  3103.8  3103.8  1.0  3.0  4.0  13.5  -999.25  1.5  65.5  1.0
  3104.0  3104.0  1.0  3.0  4.0  13.5  -999.25  1.5  65.5  1.0
  3104.2  3104.2  1.0  3.0  4.0  17.200001  -999.25  1.5  69.699997  1.0
  3104.4  3104.3999  1.0  3.0  4.0  17.200001  -999.25  1.5  69.699997  1.0
  3104.6  3104.6001  1.0  3.0  4.0  17.200001  -999.25  1.5  69.699997  1.0
  3104.8  3104.8  1.0  3.0  4.0  19.1  -999.25  1.4  70.900002  1.0
  3105.0  3105.0  1.0  3.0  4.0  19.1  -999.25  1.4  70.900002  1.0
  3105.2  3105.2  1.0  3.0  4.0  19.4  -999.25  1.4  71.099998  1.0
  3105.4  3105.3999  1.0  3.0  4.0  19.4  -999.25  1.4  71.099998  1.0
  3105.6  3105.6001  1.0  3.0  4.0  18.1  -999.25  0.69999999  67.5  1.0
  3105.8  3105.8  1.0  3.0  4.0  18.1  -999.25  0.69999999  67.5  1.0
  3106.0  3106.0  1.0  3.0  4.0  17.200001  -999.25  0.89999998  67.900002  1.0
  3106.2  3106.2  1.0  3.0  4.0  17.200001  -999.25  0.89999998  67.900002  1.0
  3106.4  3106.3999  1.0  3.0  4.0  14.5  -999.25  0.89999998  64.800003  1.0
  3106.6  3106.6001  1.0  3.0  4.0  14.5  -999.25  0.89999998  64.800003  1.0
  3106.8  3106.8  1.0  3.0  4.0  14.5  -999.25  0.89999998  64.800003  1.0
  3107.0  3107.0  0.0  1.0  0.0  -999.25  -999.25  -999.25  0.0  0.0
  3107.2  3107.2  0.0  1.0  0.0  -999.25  -999.25  -999.25  0.0  0.0
  3107.4  3107.3999  0.0  1.0  0.0  -999.25  -999.25  -999.25  0.0  0.0
  3107.6  3107.6001  0.0  1.0  0.0  -999.25  -999.25  -999.25  0.0  0.0
  3107.8  3107.8  0.0  1.0  0.0  -999.25  -999.25  -999.25  0.0  0.0
  3108.0  3108.0  0.0  1.0  0.0  -999.25  -999.25  -999.25  0.0  0.0
  3108.2  3108.2  0.0  1.0  0.0  -999.25  -999.25  -999.25  0.0  0.0
  3108.4  3108.3999  0.0  1.0  0.0  -999.25  -999.25  -999.25  0.0  0.0
  3108.6  3108.6001  0.0  1.0  0.0  -999.25  -999.25  -999.25  0.0  0.0
  3108.8  3108.8  0.0  1.0  0.0  -999.25  -999.25  -999.25  0.0  0.0
  3109.0  3109.0  0.0  1.0  0.0  -999.25  -999.25  -999.25  0.0  0.0
  3109.2  3109.2  0.0  1.0  0.0  -999.25  -999.25  -999.25  0.0  0.0
  3109.4  3109.3999  0.0  1.0  0.0  -999.25  -999.25  -999.25  0.0  0.0
  3109.6  3109.6001  0.0  1.0  0.0  -999.25  -999.25  -999.25  0.0  0.0
  3109.8  3109.8  0.0  1.0  0.0  -999.25  -999.25  -999.25  0.0  0.0
  3110.0  3110.0  0.0  1.0  0.0  -999.25  -999.25  -999.25  0.0  0.0
  3110.2  3110.2  0.0  1.0  0.0  -999.25  -999.25  -999.25  0.0  0.0
