~VERSION INFORMATION
 VERS. 2.0  : 
 WRAP. YES  :
~WELL INFORMATION
 LOC.X    :
 SRVC.X    :
 COMP.X    :
 WELL.X  100  :
 STOP.X  3220.00000000  :
 UWI.X  ccaf8416-11fb-4f20-a397-fdc46fcefdd8  :
 STRT.X  2736.00000000  :
 STEP.X  0.20000000  :
 API.X    :
 PROV.X    :
 DATE.X  Tuesday December 08 2009 10  :
 NULL.X  -999.250000  :
 FLD.X    :
~CURVE INFORMATION
 DEPTXXXX.X  :
 DEPTH.X  :
 RES.X  :
 LT.X  :
 ST.X  :
 Ro.X  :
 Kgl.X  :
 Kpr.X  :
 Kos.X  :
 Facies.X  :
~PARAMETERS INFORMATION
 P2.X    : X
 P1.X    : X
~A  DEPTXXXX  DEPTH  RES  LT  ST  Ro  Kgl  Kpr  Kos  Facies
# ...
  2921.4  2921.3999  0.0  0.0  0.0  0.0  0.0  -999.25  0.0  0.0
  2921.6  2921.6001  0.0  0.0  0.0  0.0  0.0  -999.25  0.0  0.0
  2921.8  2921.8  0.0  0.0  0.0  0.0  0.0  -999.25  0.0  0.0
  2922.0  2922.0  0.0  0.0  0.0  0.0  0.0  -999.25  0.0  0.0
  2922.2  2922.2  0.0  0.0  0.0  0.0  0.0  -999.25  0.0  0.0
  2922.4  2922.3999  0.0  0.0  0.0  0.0  0.0  -999.25  0.0  0.0
  2922.6  2922.6001  0.0  0.0  0.0  0.0  0.0  -999.25  0.0  0.0
  2922.8  2922.8  0.0  0.0  0.0  0.0  0.0  -999.25  0.0  0.0
  2923.0  2923.0  0.0  0.0  0.0  0.0  0.0  -999.25  0.0  0.0
  2923.2  2923.2  0.0  0.0  0.0  0.0  0.0  -999.25  0.0  0.0
  2923.4  2923.3999  0.0  0.0  0.0  0.0  0.0  -999.25  0.0  0.0
  2923.6  2923.6001  0.0  0.0  0.0  0.0  0.0  -999.25  0.0  0.0
  2923.8  2923.8  0.0  0.0  0.0  0.0  0.0  -999.25  0.0  0.0
  2924.0  2924.0  0.0  0.0  0.0  0.0  0.0  -999.25  0.0  0.0
  2924.2  2924.2  0.0  0.0  0.0  0.0  0.0  -999.25  0.0  0.0
  2924.4  2924.3999  0.0  0.0  0.0  0.0  0.0  -999.25  0.0  0.0
  2924.6  2924.6001  0.0  0.0  0.0  0.0  0.0  -999.25  0.0  0.0
  2924.8  2924.8  0.0  0.0  0.0  0.0  0.0  -999.25  0.0  0.0
  2925.0  2925.0  0.0  0.0  0.0  0.0  0.0  -999.25  0.0  0.0
  2925.2  2925.2  0.0  4.0  0.0  -999.25  -999.25  -999.25  0.0  0.0
  2925.4  2925.3999  0.0  4.0  0.0  -999.25  -999.25  -999.25  0.0  0.0
  2925.6  2925.6001  0.0  4.0  0.0  -999.25  -999.25  -999.25  0.0  0.0
  2925.8  2925.8  0.0  4.0  0.0  -999.25  -999.25  -999.25  0.0  0.0
  2926.0  2926.0  0.0  0.0  0.0  0.0  0.0  -999.25  0.0  0.0
  2926.2  2926.2  0.0  0.0  0.0  0.0  0.0  -999.25  0.0  0.0
  2926.4  2926.3999  0.0  0.0  0.0  0.0  0.0  -999.25  0.0  0.0
  2926.6  2926.6001  0.0  0.0  0.0  0.0  0.0  -999.25  0.0  0.0
  2926.8  2926.8  0.0  0.0  0.0  0.0  0.0  -999.25  0.0  0.0
  2927.0  2927.0  0.0  0.0  0.0  0.0  0.0  -999.25  0.0  0.0
  2927.2  2927.2  0.0  0.0  0.0  0.0  0.0  -999.25  0.0  0.0
  2927.4  2927.3999  0.0  0.0  0.0  0.0  0.0  -999.25  0.0  0.0
  2927.6  2927.6001  0.0  0.0  0.0  0.0  0.0  -999.25  0.0  0.0
  2927.8  2927.8  0.0  0.0  0.0  0.0  0.0  -999.25  0.0  0.0
  2928.0  2928.0  0.0  0.0  0.0  0.0  0.0  -999.25  0.0  0.0
  2928.2  2928.2  0.0  0.0  0.0  0.0  0.0  -999.25  0.0  0.0
  2928.4  2928.3999  0.0  0.0  0.0  0.0  0.0  -999.25  0.0  0.0
  2928.6  2928.6001  0.0  0.0  0.0  0.0  0.0  -999.25  0.0  0.0
  2928.8  2928.8  0.0  0.0  0.0  0.0  0.0  -999.25  0.0  0.0
  2929.0  2929.0  0.0  0.0  0.0  0.0  0.0  -999.25  0.0  0.0
  2929.2  2929.2  0.0  0.0  0.0  0.0  0.0  -999.25  0.0  0.0
  2929.4  2929.3999  0.0  0.0  0.0  0.0  0.0  -999.25  0.0  0.0
  2929.6  2929.6001  0.0  0.0  0.0  0.0  0.0  -999.25  0.0  0.0
  2929.8  2929.8  0.0  0.0  0.0  0.0  0.0  -999.25  0.0  0.0
  2930.0  2930.0  0.0  0.0  0.0  0.0  0.0  -999.25  0.0  0.0
  2930.2  2930.2  0.0  0.0  0.0  0.0  0.0  -999.25  0.0  0.0
  2930.4  2930.3999  0.0  0.0  0.0  0.0  0.0  -999.25  0.0  0.0
  2930.6  2930.6001  0.0  0.0  0.0  0.0  0.0  -999.25  0.0  0.0
  2930.8  2930.8  0.0  0.0  0.0  0.0  0.0  -999.25  0.0  0.0
  2931.0  2931.0  0.0  0.0  0.0  0.0  0.0  -999.25  0.0  0.0
  2931.2  2931.2  0.0  0.0  0.0  0.0  0.0  -999.25  0.0  0.0
  2931.4  2931.3999  0.0  0.0  0.0  0.0  0.0  -999.25  0.0  0.0
  2931.6  2931.6001  0.0  0.0  0.0  0.0  0.0  -999.25  0.0  0.0
  2931.8  2931.8  0.0  0.0  0.0  0.0  0.0  -999.25  0.0  0.0
  2932.0  2932.0  0.0  0.0  0.0  0.0  0.0  -999.25  0.0  0.0
  2932.2  2932.2  0.0  0.0  0.0  0.0  0.0  -999.25  0.0  0.0
  2932.4  2932.3999  0.0  0.0  0.0  0.0  0.0  -999.25  0.0  0.0
  2932.6  2932.6001  0.0  0.0  0.0  0.0  0.0  -999.25  0.0  0.0
  2932.8  2932.8  0.0  0.0  0.0  0.0  0.0  -999.25  0.0  0.0
  2933.0  2933.0  0.0  0.0  0.0  0.0  0.0  -999.25  0.0  0.0
  2933.2  2933.2  0.0  0.0  0.0  0.0  0.0  -999.25  0.0  0.0
  2933.4  2933.3999  0.0  0.0  0.0  0.0  0.0  -999.25  0.0  0.0
  2933.6  2933.6001  0.0  0.0  0.0  0.0  0.0  -999.25  0.0  0.0
  2933.8  2933.8  0.0  0.0  0.0  0.0  0.0  -999.25  0.0  0.0
  2934.0  2934.0  0.0  0.0  0.0  0.0  0.0  -999.25  0.0  0.0
  2934.2  2934.2  0.0  0.0  0.0  0.0  0.0  -999.25  0.0  0.0
  2934.4  2934.3999  0.0  0.0  0.0  0.0  0.0  -999.25  0.0  0.0
  2934.6  2934.6001  0.0  0.0  0.0  0.0  0.0  -999.25  0.0  0.0
  2934.8  2934.8  0.0  0.0  0.0  0.0  0.0  -999.25  0.0  0.0
  2935.0  2935.0  0.0  0.0  0.0  0.0  0.0  -999.25  0.0  0.0
  2935.2  2935.2  0.0  0.0  0.0  0.0  0.0  -999.25  0.0  0.0
  2935.4  2935.3999  0.0  0.0  0.0  0.0  0.0  -999.25  0.0  0.0
  2935.6  2935.6001  0.0  0.0  0.0  0.0  0.0  -999.25  0.0  0.0
  2935.8  2935.8  0.0  0.0  0.0  0.0  0.0  -999.25  0.0  0.0
  2936.0  2936.0  1.0  3.0  4.0  15.7  -999.25  0.40000001  61.599998  1.0
  2936.2  2936.2  1.0  3.0  4.0  15.7  -999.25  0.40000001  61.599998  1.0
  2936.4  2936.3999  1.0  3.0  4.0  15.7  -999.25  0.40000001  61.599998  1.0
  2936.6  2936.6001  1.0  3.0  4.0  15.7  -999.25  0.40000001  61.599998  1.0
  2936.8  2936.8  1.0  3.0  4.0  15.7  -999.25  0.40000001  61.599998  1.0
  2937.0  2937.0  1.0  3.0  4.0  15.7  -999.25  0.40000001  61.599998  1.0
  2937.2  2937.2  0.0  0.0  0.0  0.0  0.0  -999.25  0.0  0.0
  2937.4  2937.3999  0.0  0.0  0.0  0.0  0.0  -999.25  0.0  0.0
  2937.6  2937.6001  0.0  0.0  0.0  0.0  0.0  -999.25  0.0  0.0
  2937.8  2937.8  0.0  0.0  0.0  0.0  0.0  -999.25  0.0  0.0
  2938.0  2938.0  0.0  0.0  0.0  0.0  0.0  -999.25  0.0  0.0
  2938.2  2938.2  0.0  0.0  0.0  0.0  0.0  -999.25  0.0  0.0
  2938.4  2938.3999  0.0  0.0  0.0  0.0  0.0  -999.25  0.0  0.0
  2938.6  2938.6001  0.0  0.0  0.0  0.0  0.0  -999.25  0.0  0.0
  2938.8  2938.8  0.0  0.0  0.0  0.0  0.0  -999.25  0.0  0.0
  2939.0  2939.0  0.0  0.0  0.0  0.0  0.0  -999.25  0.0  0.0
  2939.2  2939.2  0.0  0.0  0.0  0.0  0.0  -999.25  0.0  0.0
  2939.4  2939.3999  0.0  0.0  0.0  0.0  0.0  -999.25  0.0  0.0
  2939.6  2939.6001  0.0  0.0  0.0  0.0  0.0  -999.25  0.0  0.0
  2939.8  2939.8  0.0  0.0  0.0  0.0  0.0  -999.25  0.0  0.0
  2940.0  2940.0  0.0  0.0  0.0  0.0  0.0  -999.25  0.0  0.0
  2940.2  2940.2  0.0  0.0  0.0  0.0  0.0  -999.25  0.0  0.0
  2940.4  2940.3999  0.0  0.0  0.0  0.0  0.0  -999.25  0.0  0.0
  2940.6  2940.6001  0.0  0.0  0.0  0.0  0.0  -999.25  0.0  0.0
  2940.8  2940.8  0.0  0.0  0.0  0.0  0.0  -999.25  0.0  0.0
  2941.0  2941.0  0.0  0.0  0.0  0.0  0.0  -999.25  0.0  0.0
  2941.2  2941.2  1.0  3.0  4.0  15.7  -999.25  0.89999998  65.099998  1.0
  2941.4  2941.3999  1.0  3.0  4.0  15.7  -999.25  0.89999998  65.099998  1.0
  2941.6  2941.6001  1.0  3.0  4.0  15.7  -999.25  0.89999998  65.099998  1.0
  2941.8  2941.8  0.0  0.0  0.0  0.0  0.0  -999.25  0.0  0.0
  2942.0  2942.0  0.0  0.0  0.0  0.0  0.0  -999.25  0.0  0.0
  2942.2  2942.2  0.0  0.0  0.0  0.0  0.0  -999.25  0.0  0.0
  2942.4  2942.3999  0.0  0.0  0.0  0.0  0.0  -999.25  0.0  0.0
  2942.6  2942.6001  0.0  0.0  0.0  0.0  0.0  -999.25  0.0  0.0
  2942.8  2942.8  0.0  0.0  0.0  0.0  0.0  -999.25  0.0  0.0
  2943.0  2943.0  0.0  0.0  0.0  0.0  0.0  -999.25  0.0  0.0
  2943.2  2943.2  0.0  0.0  0.0  0.0  0.0  -999.25  0.0  0.0
  2943.4  2943.3999  0.0  0.0  0.0  0.0  0.0  -999.25  0.0  0.0
  2943.6  2943.6001  0.0  0.0  0.0  0.0  0.0  -999.25  0.0  0.0
  2943.8  2943.8  0.0  0.0  0.0  0.0  0.0  -999.25  0.0  0.0
  2944.0  2944.0  0.0  0.0  0.0  0.0  0.0  -999.25  0.0  0.0
  2944.2  2944.2  0.0  0.0  0.0  0.0  0.0  -999.25  0.0  0.0
  2944.4  2944.3999  0.0  0.0  0.0  0.0  0.0  -999.25  0.0  0.0
  2944.6  2944.6001  0.0  0.0  0.0  0.0  0.0  -999.25  0.0  0.0
  2944.8  2944.8  0.0  0.0  0.0  0.0  0.0  -999.25  0.0  0.0
  2945.0  2945.0  0.0  0.0  0.0  0.0  0.0  -999.25  0.0  0.0
  2945.2  2945.2  0.0  0.0  0.0  0.0  0.0  -999.25  0.0  0.0
  2945.4  2945.3999  0.0  0.0  0.0  0.0  0.0  -999.25  0.0  0.0
  2945.6  2945.6001  0.0  0.0  0.0  0.0  0.0  -999.25  0.0  0.0
  2945.8  2945.8  0.0  0.0  0.0  0.0  0.0  -999.25  0.0  0.0
  2946.0  2946.0  0.0  0.0  0.0  0.0  0.0  -999.25  0.0  0.0
  2946.2  2946.2  0.0  0.0  0.0  0.0  0.0  -999.25  0.0  0.0
  2946.4  2946.3999  0.0  0.0  0.0  0.0  0.0  -999.25  0.0  0.0
  2946.6  2946.6001  0.0  0.0  0.0  0.0  0.0  -999.25  0.0  0.0
