~VERSION INFORMATION
 VERS. 2.0  : 
 WRAP. YES  :
~WELL INFORMATION
 LOC.X    :
 SRVC.X    :
 COMP.X    :
 WELL.X  100  :
 STOP.X  3220.00000000  :
 UWI.X  ccaf8416-11fb-4f20-a397-fdc46fcefdd8  :
 STRT.X  2736.00000000  :
 STEP.X  0.20000000  :
 API.X    :
 PROV.X    :
 DATE.X  Tuesday December 08 2009 10  :
 NULL.X  -999.250000  :
 FLD.X    :
~CURVE INFORMATION
 DEPTXXXX.X  :
 DEPTH.X  :
 RES.X  :
 LT.X  :
 ST.X  :
 Ro.X  :
 Kgl.X  :
 Kpr.X  :
 Kos.X  :
 Facies.X  :
~PARAMETERS INFORMATION
 P2.X    : X
 P1.X    : X
~A  DEPTXXXX  DEPTH  RES  LT  ST  Ro  Kgl  Kpr  Kos  Facies
# ...
  2807.0  2807.0  0.0  1.0  0.0  -999.25  -999.25  -999.25  0.0  0.0
  2807.2  2807.2  0.0  1.0  0.0  -999.25  -999.25  -999.25  0.0  0.0
  2807.4  2807.3999  0.0  1.0  0.0  -999.25  -999.25  -999.25  0.0  0.0
  2807.6  2807.6001  0.0  1.0  0.0  -999.25  -999.25  -999.25  0.0  0.0
  2807.8  2807.8  0.0  1.0  0.0  -999.25  -999.25  -999.25  0.0  0.0
  2808.0  2808.0  0.0  1.0  0.0  -999.25  -999.25  -999.25  0.0  0.0
  2808.2  2808.2  0.0  1.0  0.0  -999.25  -999.25  -999.25  0.0  0.0
  2808.4  2808.3999  0.0  1.0  0.0  -999.25  -999.25  -999.25  0.0  0.0
  2808.6  2808.6001  0.0  1.0  0.0  -999.25  -999.25  -999.25  0.0  0.0
  2808.8  2808.8  0.0  1.0  0.0  -999.25  -999.25  -999.25  0.0  0.0
  2809.0  2809.0  0.0  1.0  0.0  -999.25  -999.25  -999.25  0.0  0.0
  2809.2  2809.2  0.0  1.0  0.0  -999.25  -999.25  -999.25  0.0  0.0
  2809.4  2809.3999  0.0  1.0  0.0  -999.25  -999.25  -999.25  0.0  0.0
  2809.6  2809.6001  0.0  1.0  0.0  -999.25  -999.25  -999.25  0.0  0.0
  2809.8  2809.8  0.0  1.0  0.0  -999.25  -999.25  -999.25  0.0  0.0
  2810.0  2810.0  0.0  1.0  0.0  -999.25  -999.25  -999.25  0.0  0.0
  2810.2  2810.2  0.0  1.0  0.0  -999.25  -999.25  -999.25  0.0  0.0
  2810.4  2810.3999  0.0  1.0  0.0  -999.25  -999.25  -999.25  0.0  0.0
  2810.6  2810.6001  0.0  1.0  0.0  -999.25  -999.25  -999.25  0.0  0.0
  2810.8  2810.8  0.0  1.0  0.0  -999.25  -999.25  -999.25  0.0  0.0
  2811.0  2811.0  0.0  1.0  0.0  -999.25  -999.25  -999.25  0.0  0.0
  2811.2  2811.2  0.0  1.0  0.0  -999.25  -999.25  -999.25  0.0  0.0
  2811.4  2811.3999  0.0  1.0  0.0  -999.25  -999.25  -999.25  0.0  0.0
  2811.6  2811.6001  0.0  1.0  0.0  -999.25  -999.25  -999.25  0.0  0.0
  2811.8  2811.8  0.0  1.0  0.0  -999.25  -999.25  -999.25  0.0  0.0
  2812.0  2812.0  0.0  1.0  0.0  -999.25  -999.25  -999.25  0.0  0.0
  2812.2  2812.2  0.0  1.0  0.0  -999.25  -999.25  -999.25  0.0  0.0
  2812.4  2812.3999  0.0  1.0  0.0  -999.25  -999.25  -999.25  0.0  0.0
  2812.6  2812.6001  0.0  1.0  0.0  -999.25  -999.25  -999.25  0.0  0.0
  2812.8  2812.8  0.0  1.0  0.0  -999.25  -999.25  -999.25  0.0  0.0
  2813.0  2813.0  0.0  1.0  0.0  -999.25  -999.25  -999.25  0.0  0.0
  2813.2  2813.2  0.0  1.0  0.0  -999.25  -999.25  -999.25  0.0  0.0
  2813.4  2813.3999  0.0  1.0  0.0  -999.25  -999.25  -999.25  0.0  0.0
  2813.6  2813.6001  0.0  1.0  0.0  -999.25  -999.25  -999.25  0.0  0.0
  2813.8  2813.8  0.0  1.0  0.0  -999.25  -999.25  -999.25  0.0  0.0
  2814.0  2814.0  0.0  1.0  0.0  -999.25  -999.25  -999.25  0.0  0.0
  2814.2  2814.2  0.0  1.0  0.0  -999.25  -999.25  -999.25  0.0  0.0
  2814.4  2814.3999  0.0  1.0  0.0  -999.25  -999.25  -999.25  0.0  0.0
  2814.6  2814.6001  0.0  1.0  0.0  -999.25  -999.25  -999.25  0.0  0.0
  2814.8  2814.8  0.0  1.0  0.0  -999.25  -999.25  -999.25  0.0  0.0
  2815.0  2815.0  0.0  1.0  0.0  -999.25  -999.25  -999.25  0.0  0.0
  2815.2  2815.2  0.0  1.0  0.0  -999.25  -999.25  -999.25  0.0  0.0
  2815.4  2815.3999  0.0  1.0  0.0  -999.25  -999.25  -999.25  0.0  0.0
  2815.6  2815.6001  0.0  1.0  0.0  -999.25  -999.25  -999.25  0.0  0.0
  2815.8  2815.8  0.0  1.0  0.0  -999.25  -999.25  -999.25  0.0  0.0
  2816.0  2816.0  0.0  1.0  0.0  -999.25  -999.25  -999.25  0.0  0.0
  2816.2  2816.2  0.0  1.0  0.0  -999.25  -999.25  -999.25  0.0  0.0
  2816.4  2816.3999  0.0  1.0  0.0  -999.25  -999.25  -999.25  0.0  0.0
  2816.6  2816.6001  0.0  1.0  0.0  -999.25  -999.25  -999.25  0.0  0.0
  2816.8  2816.8  0.0  1.0  0.0  -999.25  -999.25  -999.25  0.0  0.0
  2817.0  2817.0  0.0  1.0  0.0  -999.25  -999.25  -999.25  0.0  0.0
  2817.2  2817.2  0.0  1.0  0.0  -999.25  -999.25  -999.25  0.0  0.0
  2817.4  2817.3999  0.0  1.0  0.0  -999.25  -999.25  -999.25  0.0  0.0
  2817.6  2817.6001  0.0  1.0  0.0  -999.25  -999.25  -999.25  0.0  0.0
  2817.8  2817.8  0.0  1.0  0.0  -999.25  -999.25  -999.25  0.0  0.0
  2818.0  2818.0  0.0  1.0  0.0  -999.25  -999.25  -999.25  0.0  0.0
  2818.2  2818.2  0.0  1.0  0.0  -999.25  -999.25  -999.25  0.0  0.0
  2818.4  2818.3999  0.0  1.0  0.0  -999.25  -999.25  -999.25  0.0  0.0
  2818.6  2818.6001  0.0  1.0  0.0  -999.25  -999.25  -999.25  0.0  0.0
  2818.8  2818.8  0.0  1.0  0.0  -999.25  -999.25  -999.25  0.0  0.0
  2819.0  2819.0  0.0  1.0  0.0  -999.25  -999.25  -999.25  0.0  0.0
  2819.2  2819.2  0.0  1.0  0.0  -999.25  -999.25  -999.25  0.0  0.0
  2819.4  2819.3999  0.0  1.0  0.0  -999.25  -999.25  -999.25  0.0  0.0
  2819.6  2819.6001  0.0  1.0  0.0  -999.25  -999.25  -999.25  0.0  0.0
  2819.8  2819.8  0.0  1.0  0.0  -999.25  -999.25  -999.25  0.0  0.0
  2820.0  2820.0  0.0  1.0  0.0  -999.25  -999.25  -999.25  0.0  0.0
  2820.2  2820.2  0.0  1.0  0.0  -999.25  -999.25  -999.25  0.0  0.0
  2820.4  2820.3999  0.0  1.0  0.0  -999.25  -999.25  -999.25  0.0  0.0
  2820.6  2820.6001  0.0  1.0  0.0  -999.25  -999.25  -999.25  0.0  0.0
  2820.8  2820.8  0.0  1.0  0.0  -999.25  -999.25  -999.25  0.0  0.0
  2821.0  2821.0  0.0  1.0  0.0  -999.25  -999.25  -999.25  0.0  0.0
  2821.2  2821.2  0.0  1.0  0.0  -999.25  -999.25  -999.25  0.0  0.0
  2821.4  2821.3999  0.0  1.0  0.0  -999.25  -999.25  -999.25  0.0  0.0
  2821.6  2821.6001  0.0  1.0  0.0  -999.25  -999.25  -999.25  0.0  0.0
  2821.8  2821.8  0.0  1.0  0.0  -999.25  -999.25  -999.25  0.0  0.0
  2822.0  2822.0  0.0  1.0  0.0  -999.25  -999.25  -999.25  0.0  0.0
  2822.2  2822.2  0.0  1.0  0.0  -999.25  -999.25  -999.25  0.0  0.0
  2822.4  2822.3999  0.0  1.0  0.0  -999.25  -999.25  -999.25  0.0  0.0
  2822.6  2822.6001  0.0  1.0  0.0  -999.25  -999.25  -999.25  0.0  0.0
  2822.8  2822.8  0.0  1.0  0.0  -999.25  -999.25  -999.25  0.0  0.0
  2823.0  2823.0  0.0  1.0  0.0  -999.25  -999.25  -999.25  0.0  0.0
  2823.2  2823.2  0.0  1.0  0.0  -999.25  -999.25  -999.25  0.0  0.0
  2823.4  2823.3999  0.0  1.0  0.0  -999.25  -999.25  -999.25  0.0  0.0
  2823.6  2823.6001  0.0  1.0  0.0  -999.25  -999.25  -999.25  0.0  0.0
  2823.8  2823.8  0.0  1.0  0.0  -999.25  -999.25  -999.25  0.0  0.0
  2824.0  2824.0  0.0  1.0  0.0  -999.25  -999.25  -999.25  0.0  0.0
  2824.2  2824.2  0.0  1.0  0.0  -999.25  -999.25  -999.25  0.0  0.0
  2824.4  2824.3999  0.0  1.0  0.0  -999.25  -999.25  -999.25  0.0  0.0
  2824.6  2824.6001  0.0  1.0  0.0  -999.25  -999.25  -999.25  0.0  0.0
  2824.8  2824.8  0.0  1.0  0.0  -999.25  -999.25  -999.25  0.0  0.0
  2825.0  2825.0  0.0  1.0  0.0  -999.25  -999.25  -999.25  0.0  0.0
  2825.2  2825.2  0.0  1.0  0.0  -999.25  -999.25  -999.25  0.0  0.0
  2825.4  2825.3999  0.0  1.0  0.0  -999.25  -999.25  -999.25  0.0  0.0
  2825.6  2825.6001  0.0  1.0  0.0  -999.25  -999.25  -999.25  0.0  0.0
  2825.8  2825.8  0.0  1.0  0.0  -999.25  -999.25  -999.25  0.0  0.0
  2826.0  2826.0  0.0  1.0  0.0  -999.25  -999.25  -999.25  0.0  0.0
  2826.2  2826.2  0.0  1.0  0.0  -999.25  -999.25  -999.25  0.0  0.0
  2826.4  2826.3999  0.0  1.0  0.0  -999.25  -999.25  -999.25  0.0  0.0
  2826.6  2826.6001  0.0  1.0  0.0  -999.25  -999.25  -999.25  0.0  0.0
  2826.8  2826.8  0.0  1.0  0.0  -999.25  -999.25  -999.25  0.0  0.0
  2827.0  2827.0  0.0  1.0  0.0  -999.25  -999.25  -999.25  0.0  0.0
  2827.2  2827.2  0.0  1.0  0.0  -999.25  -999.25  -999.25  0.0  0.0
  2827.4  2827.3999  0.0  1.0  0.0  -999.25  -999.25  -999.25  0.0  0.0
  2827.6  2827.6001  0.0  1.0  0.0  -999.25  -999.25  -999.25  0.0  0.0
  2827.8  2827.8  0.0  1.0  0.0  -999.25  -999.25  -999.25  0.0  0.0
  2828.0  2828.0  0.0  1.0  0.0  -999.25  -999.25  -999.25  0.0  0.0
  2828.2  2828.2  0.0  1.0  0.0  -999.25  -999.25  -999.25  0.0  0.0
  2828.4  2828.3999  0.0  1.0  0.0  -999.25  -999.25  -999.25  0.0  0.0
  2828.6  2828.6001  0.0  1.0  0.0  -999.25  -999.25  -999.25  0.0  0.0
  2828.8  2828.8  0.0  1.0  0.0  -999.25  -999.25  -999.25  0.0  0.0
  2829.0  2829.0  0.0  1.0  0.0  -999.25  -999.25  -999.25  0.0  0.0
  2829.2  2829.2  0.0  1.0  0.0  -999.25  -999.25  -999.25  0.0  0.0
  2829.4  2829.3999  0.0  1.0  0.0  -999.25  -999.25  -999.25  0.0  0.0
  2829.6  2829.6001  0.0  1.0  0.0  -999.25  -999.25  -999.25  0.0  0.0
