~VERSION INFORMATION
 VERS. 2.0  : 
 WRAP. YES  :
~WELL INFORMATION
 LOC.X    :
 SRVC.X    :
 COMP.X    :
 WELL.X  100  :
 STOP.X  3220.00000000  :
 UWI.X  ccaf8416-11fb-4f20-a397-fdc46fcefdd8  :
 STRT.X  2736.00000000  :
 STEP.X  0.20000000  :
 API.X    :
 PROV.X    :
 DATE.X  Tuesday December 08 2009 10  :
 NULL.X  -999.250000  :
 FLD.X    :
~CURVE INFORMATION
 DEPTXXXX.X  :
 DEPTH.X  :
 RES.X  :
 LT.X  :
 ST.X  :
 Ro.X  :
 Kgl.X  :
 Kpr.X  :
 Kos.X  :
 Facies.X  :
~PARAMETERS INFORMATION
 P2.X    : X
 P1.X    : X
~A  DEPTXXXX  DEPTH  RES  LT  ST  Ro  Kgl  Kpr  Kos  Facies
# ...
  3110.4  3110.3999  0.0  1.0  0.0  -999.25  -999.25  -999.25  0.0  0.0
  3110.6  3110.6001  0.0  1.0  0.0  -999.25  -999.25  -999.25  0.0  0.0
  3110.8  3110.8  0.0  1.0  0.0  -999.25  -999.25  -999.25  0.0  0.0
  3111.0  3111.0  0.0  1.0  0.0  -999.25  -999.25  -999.25  0.0  0.0
  3111.2  3111.2  0.0  1.0  0.0  -999.25  -999.25  -999.25  0.0  0.0
  3111.4  3111.3999  0.0  1.0  0.0  -999.25  -999.25  -999.25  0.0  0.0
  3111.6  3111.6001  0.0  1.0  0.0  -999.25  -999.25  -999.25  0.0  0.0
  3111.8  3111.8  0.0  1.0  0.0  -999.25  -999.25  -999.25  0.0  0.0
  3112.0  3112.0  0.0  1.0  0.0  -999.25  -999.25  -999.25  0.0  0.0
  3112.2  3112.2  0.0  1.0  0.0  -999.25  -999.25  -999.25  0.0  0.0
  3112.4  3112.3999  0.0  1.0  0.0  -999.25  -999.25  -999.25  0.0  0.0
  3112.6  3112.6001  0.0  1.0  0.0  -999.25  -999.25  -999.25  0.0  0.0
  3112.8  3112.8  0.0  1.0  0.0  -999.25  -999.25  -999.25  0.0  0.0
  3113.0  3113.0  0.0  1.0  0.0  -999.25  -999.25  -999.25  0.0  0.0
  3113.2  3113.2  0.0  1.0  0.0  -999.25  -999.25  -999.25  0.0  0.0
  3113.4  3113.3999  0.0  1.0  0.0  -999.25  -999.25  -999.25  0.0  0.0
  3113.6  3113.6001  0.0  1.0  0.0  -999.25  -999.25  -999.25  0.0  0.0
  3113.8  3113.8  0.0  1.0  0.0  -999.25  -999.25  -999.25  0.0  0.0
  3114.0  3114.0  0.0  1.0  0.0  -999.25  -999.25  -999.25  0.0  0.0
  3114.2  3114.2  0.0  1.0  0.0  -999.25  -999.25  -999.25  0.0  0.0
  3114.4  3114.3999  0.0  1.0  0.0  -999.25  -999.25  -999.25  0.0  0.0
  3114.6  3114.6001  0.0  1.0  0.0  -999.25  -999.25  -999.25  0.0  0.0
  3114.8  3114.8  0.0  1.0  0.0  -999.25  -999.25  -999.25  0.0  0.0
  3115.0  3115.0  0.0  1.0  0.0  -999.25  -999.25  -999.25  0.0  0.0
  3115.2  3115.2  0.0  1.0  0.0  -999.25  -999.25  -999.25  0.0  0.0
  3115.4  3115.3999  0.0  1.0  0.0  -999.25  -999.25  -999.25  0.0  0.0
  3115.6  3115.6001  0.0  1.0  0.0  -999.25  -999.25  -999.25  0.0  0.0
  3115.8  3115.8  0.0  1.0  0.0  -999.25  -999.25  -999.25  0.0  0.0
  3116.0  3116.0  0.0  1.0  0.0  -999.25  -999.25  -999.25  0.0  0.0
  3116.2  3116.2  0.0  1.0  0.0  -999.25  -999.25  -999.25  0.0  0.0
  3116.4  3116.3999  0.0  1.0  0.0  -999.25  -999.25  -999.25  0.0  0.0
  3116.6  3116.6001  0.0  1.0  0.0  -999.25  -999.25  -999.25  0.0  0.0
  3116.8  3116.8  0.0  1.0  0.0  -999.25  -999.25  -999.25  0.0  0.0
  3117.0  3117.0  0.0  1.0  0.0  -999.25  -999.25  -999.25  0.0  0.0
  3117.2  3117.2  0.0  1.0  0.0  -999.25  -999.25  -999.25  0.0  0.0
  3117.4  3117.3999  0.0  1.0  0.0  -999.25  -999.25  -999.25  0.0  0.0
  3117.6  3117.6001  0.0  1.0  0.0  -999.25  -999.25  -999.25  0.0  0.0
  3117.8  3117.8  0.0  1.0  0.0  -999.25  -999.25  -999.25  0.0  0.0
  3118.0  3118.0  0.0  1.0  0.0  -999.25  -999.25  -999.25  0.0  0.0
  3118.2  3118.2  0.0  1.0  0.0  -999.25  -999.25  -999.25  0.0  0.0
  3118.4  3118.3999  0.0  1.0  0.0  -999.25  -999.25  -999.25  0.0  0.0
  3118.6  3118.6001  0.0  1.0  0.0  -999.25  -999.25  -999.25  0.0  0.0
  3118.8  3118.8  0.0  1.0  0.0  -999.25  -999.25  -999.25  0.0  0.0
  3119.0  3119.0  0.0  1.0  0.0  -999.25  -999.25  -999.25  0.0  0.0
  3119.2  3119.2  0.0  1.0  0.0  -999.25  -999.25  -999.25  0.0  0.0
  3119.4  3119.3999  0.0  1.0  0.0  -999.25  -999.25  -999.25  0.0  0.0
  3119.6  3119.6001  0.0  1.0  0.0  -999.25  -999.25  -999.25  0.0  0.0
  3119.8  3119.8  0.0  1.0  0.0  -999.25  -999.25  -999.25  0.0  0.0
  3120.0  3120.0  0.0  1.0  0.0  -999.25  -999.25  -999.25  0.0  0.0
  3120.2  3120.2  0.0  1.0  0.0  -999.25  -999.25  -999.25  0.0  0.0
  3120.4  3120.3999  0.0  1.0  0.0  -999.25  -999.25  -999.25  0.0  0.0
  3120.6  3120.6001  0.0  1.0  0.0  -999.25  -999.25  -999.25  0.0  0.0
  3120.8  3120.8  0.0  1.0  0.0  -999.25  -999.25  -999.25  0.0  0.0
  3121.0  3121.0  0.0  1.0  0.0  -999.25  -999.25  -999.25  0.0  0.0
  3121.2  3121.2  0.0  1.0  0.0  -999.25  -999.25  -999.25  0.0  0.0
  3121.4  3121.3999  0.0  1.0  0.0  -999.25  -999.25  -999.25  0.0  0.0
  3121.6  3121.6001  0.0  1.0  0.0  -999.25  -999.25  -999.25  0.0  0.0
  3121.8  3121.8  0.0  1.0  0.0  -999.25  -999.25  -999.25  0.0  0.0
  3122.0  3122.0  0.0  1.0  0.0  -999.25  -999.25  -999.25  0.0  0.0
  3122.2  3122.2  0.0  1.0  0.0  -999.25  -999.25  -999.25  0.0  0.0
  3122.4  3122.3999  0.0  1.0  0.0  -999.25  -999.25  -999.25  0.0  0.0
  3122.6  3122.6001  0.0  1.0  0.0  -999.25  -999.25  -999.25  0.0  0.0
  3122.8  3122.8  0.0  1.0  0.0  -999.25  -999.25  -999.25  0.0  0.0
  3123.0  3123.0  0.0  1.0  0.0  -999.25  -999.25  -999.25  0.0  0.0
  3123.2  3123.2  0.0  1.0  0.0  -999.25  -999.25  -999.25  0.0  0.0
  3123.4  3123.3999  0.0  1.0  0.0  -999.25  -999.25  -999.25  0.0  0.0
  3123.6  3123.6001  0.0  1.0  0.0  -999.25  -999.25  -999.25  0.0  0.0
  3123.8  3123.8  0.0  1.0  0.0  -999.25  -999.25  -999.25  0.0  0.0
  3124.0  3124.0  0.0  1.0  0.0  -999.25  -999.25  -999.25  0.0  0.0
  3124.2  3124.2  0.0  1.0  0.0  -999.25  -999.25  -999.25  0.0  0.0
  3124.4  3124.3999  0.0  1.0  0.0  -999.25  -999.25  -999.25  0.0  0.0
  3124.6  3124.6001  0.0  1.0  0.0  -999.25  -999.25  -999.25  0.0  0.0
  3124.8  3124.8  0.0  1.0  0.0  -999.25  -999.25  -999.25  0.0  0.0
  3125.0  3125.0  0.0  1.0  0.0  -999.25  -999.25  -999.25  0.0  0.0
  3125.2  3125.2  0.0  1.0  0.0  -999.25  -999.25  -999.25  0.0  0.0
  3125.4  3125.3999  0.0  1.0  0.0  -999.25  -999.25  -999.25  0.0  0.0
  3125.6  3125.6001  0.0  1.0  0.0  -999.25  -999.25  -999.25  0.0  0.0
  3125.8  3125.8  0.0  1.0  0.0  -999.25  -999.25  -999.25  0.0  0.0
  3126.0  3126.0  0.0  1.0  0.0  -999.25  -999.25  -999.25  0.0  0.0
  3126.2  3126.2  0.0  1.0  0.0  -999.25  -999.25  -999.25  0.0  0.0
  3126.4  3126.3999  0.0  1.0  0.0  -999.25  -999.25  -999.25  0.0  0.0
  3126.6  3126.6001  0.0  1.0  0.0  -999.25  -999.25  -999.25  0.0  0.0
  3126.8  3126.8  0.0  1.0  0.0  -999.25  -999.25  -999.25  0.0  0.0
  3127.0  3127.0  0.0  1.0  0.0  -999.25  -999.25  -999.25  0.0  0.0
  3127.2  3127.2  0.0  1.0  0.0  -999.25  -999.25  -999.25  0.0  0.0
  3127.4  3127.3999  0.0  1.0  0.0  -999.25  -999.25  -999.25  0.0  0.0
  3127.6  3127.6001  0.0  1.0  0.0  -999.25  -999.25  -999.25  0.0  0.0
  3127.8  3127.8  0.0  1.0  0.0  -999.25  -999.25  -999.25  0.0  0.0
  3128.0  3128.0  0.0  1.0  0.0  -999.25  -999.25  -999.25  0.0  0.0
  3128.2  3128.2  0.0  1.0  0.0  -999.25  -999.25  -999.25  0.0  0.0
  3128.4  3128.3999  0.0  1.0  0.0  -999.25  -999.25  -999.25  0.0  0.0
  3128.6  3128.6001  0.0  1.0  0.0  -999.25  -999.25  -999.25  0.0  0.0
  3128.8  3128.8  0.0  1.0  0.0  -999.25  -999.25  -999.25  0.0  0.0
  3129.0  3129.0  0.0  1.0  0.0  -999.25  -999.25  -999.25  0.0  0.0
  3129.2  3129.2  0.0  1.0  0.0  -999.25  -999.25  -999.25  0.0  0.0
  3129.4  3129.3999  0.0  1.0  0.0  -999.25  -999.25  -999.25  0.0  0.0
  3129.6  3129.6001  0.0  1.0  0.0  -999.25  -999.25  -999.25  0.0  0.0
  3129.8  3129.8  0.0  1.0  0.0  -999.25  -999.25  -999.25  0.0  0.0
  3130.0  3130.0  0.0  1.0  0.0  -999.25  -999.25  -999.25  0.0  0.0
  3130.2  3130.2  0.0  1.0  0.0  -999.25  -999.25  -999.25  0.0  0.0
  3130.4  3130.3999  0.0  1.0  0.0  -999.25  -999.25  -999.25  0.0  0.0
  3130.6  3130.6001  0.0  1.0  0.0  -999.25  -999.25  -999.25  0.0  0.0
  3130.8  3130.8  0.0  1.0  0.0  -999.25  -999.25  -999.25  0.0  0.0
  3131.0  3131.0  0.0  1.0  0.0  -999.25  -999.25  -999.25  0.0  0.0
  3131.2  3131.2  0.0  1.0  0.0  -999.25  -999.25  -999.25  0.0  0.0
  3131.4  3131.3999  0.0  1.0  0.0  -999.25  -999.25  -999.25  0.0  0.0
  3131.6  3131.6001  0.0  1.0  0.0  -999.25  -999.25  -999.25  0.0  0.0
  3131.8  3131.8  0.0  1.0  0.0  -999.25  -999.25  -999.25  0.0  0.0
  3132.0  3132.0  0.0  1.0  0.0  -999.25  -999.25  -999.25  0.0  0.0
  3132.2  3132.2  0.0  1.0  0.0  -999.25  -999.25  -999.25  0.0  0.0
  3132.4  3132.3999  0.0  1.0  0.0  -999.25  -999.25  -999.25  0.0  0.0
  3132.6  3132.6001  0.0  1.0  0.0  -999.25  -999.25  -999.25  0.0  0.0
  3132.8  3132.8  0.0  1.0  0.0  -999.25  -999.25  -999.25  0.0  0.0
  3133.0  3133.0  0.0  1.0  0.0  -999.25  -999.25  -999.25  0.0  0.0
