~VERSION INFORMATION
 VERS. 2.0  : 
 WRAP. YES  :
~WELL INFORMATION
 LOC.X    :
 SRVC.X    :
 COMP.X    :
 WELL.X  100  :
 STOP.X  3220.00000000  :
 UWI.X  ccaf8416-11fb-4f20-a397-fdc46fcefdd8  :
 STRT.X  2736.00000000  :
 STEP.X  0.20000000  :
 API.X    :
 PROV.X    :
 DATE.X  Tuesday December 08 2009 10  :
 NULL.X  -999.250000  :
 FLD.X    :
~CURVE INFORMATION
 DEPTXXXX.X  :
 DEPTH.X  :
 RES.X  :
 LT.X  :
 ST.X  :
 Ro.X  :
 Kgl.X  :
 Kpr.X  :
 Kos.X  :
 Facies.X  :
~PARAMETERS INFORMATION
 P2.X    : X
 P1.X    : X
~A  DEPTXXXX  DEPTH  RES  LT  ST  Ro  Kgl  Kpr  Kos  Facies
# ...
  2898.2  2898.2  0.0  1.0  0.0  -999.25  -999.25  -999.25  0.0  0.0
  2898.4  2898.3999  0.0  1.0  0.0  -999.25  -999.25  -999.25  0.0  0.0
  2898.6  2898.6001  0.0  1.0  0.0  -999.25  -999.25  -999.25  0.0  0.0
  2898.8  2898.8  0.0  1.0  0.0  -999.25  -999.25  -999.25  0.0  0.0
  2899.0  2899.0  0.0  1.0  0.0  -999.25  -999.25  -999.25  0.0  0.0
  2899.2  2899.2  0.0  1.0  0.0  -999.25  -999.25  -999.25  0.0  0.0
  2899.4  2899.3999  0.0  1.0  0.0  -999.25  -999.25  -999.25  0.0  0.0
  2899.6  2899.6001  0.0  1.0  0.0  -999.25  -999.25  -999.25  0.0  0.0
  2899.8  2899.8  0.0  1.0  0.0  -999.25  -999.25  -999.25  0.0  0.0
  2900.0  2900.0  0.0  1.0  0.0  -999.25  -999.25  -999.25  0.0  0.0
  2900.2  2900.2  0.0  1.0  0.0  -999.25  -999.25  -999.25  0.0  0.0
  2900.4  2900.3999  0.0  1.0  0.0  -999.25  -999.25  -999.25  0.0  0.0
  2900.6  2900.6001  0.0  1.0  0.0  -999.25  -999.25  -999.25  0.0  0.0
  2900.8  2900.8  0.0  1.0  0.0  -999.25  -999.25  -999.25  0.0  0.0
  2901.0  2901.0  0.0  1.0  0.0  -999.25  -999.25  -999.25  0.0  0.0
  2901.2  2901.2  0.0  1.0  0.0  -999.25  -999.25  -999.25  0.0  0.0
  2901.4  2901.3999  0.0  1.0  0.0  -999.25  -999.25  -999.25  0.0  0.0
  2901.6  2901.6001  0.0  1.0  0.0  -999.25  -999.25  -999.25  0.0  0.0
  2901.8  2901.8  0.0  1.0  0.0  -999.25  -999.25  -999.25  0.0  0.0
  2902.0  2902.0  0.0  1.0  0.0  -999.25  -999.25  -999.25  0.0  0.0
  2902.2  2902.2  0.0  1.0  0.0  -999.25  -999.25  -999.25  0.0  0.0
  2902.4  2902.3999  0.0  1.0  0.0  -999.25  -999.25  -999.25  0.0  0.0
  2902.6  2902.6001  0.0  1.0  0.0  -999.25  -999.25  -999.25  0.0  0.0
  2902.8  2902.8  0.0  1.0  0.0  -999.25  -999.25  -999.25  0.0  0.0
  2903.0  2903.0  0.0  1.0  0.0  -999.25  -999.25  -999.25  0.0  0.0
  2903.2  2903.2  0.0  1.0  0.0  -999.25  -999.25  -999.25  0.0  0.0
  2903.4  2903.3999  0.0  1.0  0.0  -999.25  -999.25  -999.25  0.0  0.0
  2903.6  2903.6001  0.0  1.0  0.0  -999.25  -999.25  -999.25  0.0  0.0
  2903.8  2903.8  0.0  1.0  0.0  -999.25  -999.25  -999.25  0.0  0.0
  2904.0  2904.0  0.0  1.0  0.0  -999.25  -999.25  -999.25  0.0  0.0
  2904.2  2904.2  0.0  1.0  0.0  -999.25  -999.25  -999.25  0.0  0.0
  2904.4  2904.3999  0.0  1.0  0.0  -999.25  -999.25  -999.25  0.0  0.0
  2904.6  2904.6001  0.0  1.0  0.0  -999.25  -999.25  -999.25  0.0  0.0
  2904.8  2904.8  0.0  1.0  0.0  -999.25  -999.25  -999.25  0.0  0.0
  2905.0  2905.0  0.0  1.0  0.0  -999.25  -999.25  -999.25  0.0  0.0
  2905.2  2905.2  0.0  1.0  0.0  -999.25  -999.25  -999.25  0.0  0.0
  2905.4  2905.3999  0.0  1.0  0.0  -999.25  -999.25  -999.25  0.0  0.0
  2905.6  2905.6001  0.0  1.0  0.0  -999.25  -999.25  -999.25  0.0  0.0
  2905.8  2905.8  0.0  1.0  0.0  -999.25  -999.25  -999.25  0.0  0.0
  2906.0  2906.0  0.0  1.0  0.0  -999.25  -999.25  -999.25  0.0  0.0
  2906.2  2906.2  0.0  1.0  0.0  -999.25  -999.25  -999.25  0.0  0.0
  2906.4  2906.3999  0.0  1.0  0.0  -999.25  -999.25  -999.25  0.0  0.0
  2906.6  2906.6001  0.0  1.0  0.0  -999.25  -999.25  -999.25  0.0  0.0
  2906.8  2906.8  0.0  1.0  0.0  -999.25  -999.25  -999.25  0.0  0.0
  2907.0  2907.0  0.0  1.0  0.0  -999.25  -999.25  -999.25  0.0  0.0
  2907.2  2907.2  0.0  1.0  0.0  -999.25  -999.25  -999.25  0.0  0.0
  2907.4  2907.3999  0.0  1.0  0.0  -999.25  -999.25  -999.25  0.0  0.0
  2907.6  2907.6001  0.0  1.0  0.0  -999.25  -999.25  -999.25  0.0  0.0
  2907.8  2907.8  0.0  1.0  0.0  -999.25  -999.25  -999.25  0.0  0.0
  2908.0  2908.0  0.0  1.0  0.0  -999.25  -999.25  -999.25  0.0  0.0
  2908.2  2908.2  0.0  1.0  0.0  -999.25  -999.25  -999.25  0.0  0.0
  2908.4  2908.3999  0.0  1.0  0.0  -999.25  -999.25  -999.25  0.0  0.0
  2908.6  2908.6001  0.0  1.0  0.0  -999.25  -999.25  -999.25  0.0  0.0
  2908.8  2908.8  0.0  1.0  0.0  -999.25  -999.25  -999.25  0.0  0.0
  2909.0  2909.0  0.0  1.0  0.0  -999.25  -999.25  -999.25  0.0  0.0
  2909.2  2909.2  0.0  1.0  0.0  -999.25  -999.25  -999.25  0.0  0.0
  2909.4  2909.3999  0.0  1.0  0.0  -999.25  -999.25  -999.25  0.0  0.0
  2909.6  2909.6001  0.0  1.0  0.0  -999.25  -999.25  -999.25  0.0  0.0
  2909.8  2909.8  0.0  1.0  0.0  -999.25  -999.25  -999.25  0.0  0.0
  2910.0  2910.0  0.0  1.0  0.0  -999.25  -999.25  -999.25  0.0  0.0
  2910.2  2910.2  0.0  1.0  0.0  -999.25  -999.25  -999.25  0.0  0.0
  2910.4  2910.3999  0.0  1.0  0.0  -999.25  -999.25  -999.25  0.0  0.0
  2910.6  2910.6001  0.0  1.0  0.0  -999.25  -999.25  -999.25  0.0  0.0
  2910.8  2910.8  0.0  1.0  0.0  -999.25  -999.25  -999.25  0.0  0.0
  2911.0  2911.0  0.0  1.0  0.0  -999.25  -999.25  -999.25  0.0  0.0
  2911.2  2911.2  0.0  1.0  0.0  -999.25  -999.25  -999.25  0.0  0.0
  2911.4  2911.3999  0.0  1.0  0.0  -999.25  -999.25  -999.25  0.0  0.0
  2911.6  2911.6001  0.0  1.0  0.0  -999.25  -999.25  -999.25  0.0  0.0
  2911.8  2911.8  0.0  1.0  0.0  -999.25  -999.25  -999.25  0.0  0.0
  2912.0  2912.0  0.0  1.0  0.0  -999.25  -999.25  -999.25  0.0  0.0
  2912.2  2912.2  0.0  1.0  0.0  -999.25  -999.25  -999.25  0.0  0.0
  2912.4  2912.3999  0.0  1.0  0.0  -999.25  -999.25  -999.25  0.0  0.0
  2912.6  2912.6001  0.0  1.0  0.0  -999.25  -999.25  -999.25  0.0  0.0
  2912.8  2912.8  0.0  1.0  0.0  -999.25  -999.25  -999.25  0.0  0.0
  2913.0  2913.0  0.0  1.0  0.0  -999.25  -999.25  -999.25  0.0  0.0
  2913.2  2913.2  0.0  1.0  0.0  -999.25  -999.25  -999.25  0.0  0.0
  2913.4  2913.3999  0.0  1.0  0.0  -999.25  -999.25  -999.25  0.0  0.0
  2913.6  2913.6001  0.0  1.0  0.0  -999.25  -999.25  -999.25  0.0  0.0
  2913.8  2913.8  0.0  1.0  0.0  -999.25  -999.25  -999.25  0.0  0.0
  2914.0  2914.0  0.0  1.0  0.0  -999.25  -999.25  -999.25  0.0  0.0
  2914.2  2914.2  0.0  1.0  0.0  -999.25  -999.25  -999.25  0.0  0.0
  2914.4  2914.3999  0.0  1.0  0.0  -999.25  -999.25  -999.25  0.0  0.0
  2914.6  2914.6001  0.0  1.0  0.0  -999.25  -999.25  -999.25  0.0  0.0
  2914.8  2914.8  0.0  1.0  0.0  -999.25  -999.25  -999.25  0.0  0.0
  2915.0  2915.0  0.0  1.0  0.0  -999.25  -999.25  -999.25  0.0  0.0
  2915.2  2915.2  0.0  1.0  0.0  -999.25  -999.25  -999.25  0.0  0.0
  2915.4  2915.3999  0.0  1.0  0.0  -999.25  -999.25  -999.25  0.0  0.0
  2915.6  2915.6001  0.0  1.0  0.0  -999.25  -999.25  -999.25  0.0  0.0
  2915.8  2915.8  0.0  1.0  0.0  -999.25  -999.25  -999.25  0.0  0.0
  2916.0  2916.0  0.0  1.0  0.0  -999.25  -999.25  -999.25  0.0  0.0
  2916.2  2916.2  0.0  1.0  0.0  -999.25  -999.25  -999.25  0.0  0.0
  2916.4  2916.3999  0.0  1.0  0.0  -999.25  -999.25  -999.25  0.0  0.0
  2916.6  2916.6001  0.0  1.0  0.0  -999.25  -999.25  -999.25  0.0  0.0
  2916.8  2916.8  0.0  1.0  0.0  -999.25  -999.25  -999.25  0.0  0.0
  2917.0  2917.0  0.0  1.0  0.0  -999.25  -999.25  -999.25  0.0  0.0
  2917.2  2917.2  0.0  1.0  0.0  -999.25  -999.25  -999.25  0.0  0.0
  2917.4  2917.3999  0.0  1.0  0.0  -999.25  -999.25  -999.25  0.0  0.0
  2917.6  2917.6001  0.0  4.0  0.0  -999.25  -999.25  -999.25  0.0  0.0
  2917.8  2917.8  0.0  4.0  0.0  -999.25  -999.25  -999.25  0.0  0.0
  2918.0  2918.0  0.0  0.0  0.0  0.0  0.0  -999.25  0.0  0.0
  2918.2  2918.2  0.0  0.0  0.0  0.0  0.0  -999.25  0.0  0.0
  2918.4  2918.3999  0.0  0.0  0.0  0.0  0.0  -999.25  0.0  0.0
  2918.6  2918.6001  0.0  0.0  0.0  0.0  0.0  -999.25  0.0  0.0
  2918.8  2918.8  0.0  0.0  0.0  0.0  0.0  -999.25  0.0  0.0
  2919.0  2919.0  0.0  0.0  0.0  0.0  0.0  -999.25  0.0  0.0
  2919.2  2919.2  0.0  0.0  0.0  0.0  0.0  -999.25  0.0  0.0
  2919.4  2919.3999  0.0  0.0  0.0  0.0  0.0  -999.25  0.0  0.0
  2919.6  2919.6001  0.0  0.0  0.0  0.0  0.0  -999.25  0.0  0.0
  2919.8  2919.8  0.0  0.0  0.0  0.0  0.0  -999.25  0.0  0.0
  2920.0  2920.0  0.0  0.0  0.0  0.0  0.0  -999.25  0.0  0.0
  2920.2  2920.2  0.0  0.0  0.0  0.0  0.0  -999.25  0.0  0.0
  2920.4  2920.3999  0.0  0.0  0.0  0.0  0.0  -999.25  0.0  0.0
  2920.6  2920.6001  0.0  0.0  0.0  0.0  0.0  -999.25  0.0  0.0
  2920.8  2920.8  0.0  0.0  0.0  0.0  0.0  -999.25  0.0  0.0
  2921.0  2921.0  0.0  0.0  0.0  0.0  0.0  -999.25  0.0  0.0
  2921.2  2921.2  0.0  0.0  0.0  0.0  0.0  -999.25  0.0  0.0
