~VERSION INFORMATION
 VERS. 2.0  : 
 WRAP. YES  :
~WELL INFORMATION
 LOC.X    :
 SRVC.X    :
 COMP.X    :
 WELL.X  100  :
 STOP.X  3220.00000000  :
 UWI.X  ccaf8416-11fb-4f20-a397-fdc46fcefdd8  :
 STRT.X  2736.00000000  :
 STEP.X  0.20000000  :
 API.X    :
 PROV.X    :
 DATE.X  Tuesday December 08 2009 10  :
 NULL.X  -999.250000  :
 FLD.X    :
~CURVE INFORMATION
 DEPTXXXX.X  :
 DEPTH.X  :
 RES.X  :
 LT.X  :
 ST.X  :
 Ro.X  :
 Kgl.X  :
 Kpr.X  :
 Kos.X  :
 Facies.X  :
~PARAMETERS INFORMATION
 P2.X    : X
 P1.X    : X
~A  DEPTXXXX  DEPTH  RES  LT  ST  Ro  Kgl  Kpr  Kos  Facies
# ...
  2994.4  2994.3999  0.0  1.0  0.0  -999.25  -999.25  -999.25  0.0  0.0
  2994.6  2994.6001  0.0  1.0  0.0  -999.25  -999.25  -999.25  0.0  0.0
  2994.8  2994.8  0.0  1.0  0.0  -999.25  -999.25  -999.25  0.0  0.0
  2995.0  2995.0  0.0  1.0  0.0  -999.25  -999.25  -999.25  0.0  0.0
  2995.2  2995.2  0.0  1.0  0.0  -999.25  -999.25  -999.25  0.0  0.0
  2995.4  2995.3999  0.0  1.0  0.0  -999.25  -999.25  -999.25  0.0  0.0
  2995.6  2995.6001  0.0  1.0  0.0  -999.25  -999.25  -999.25  0.0  0.0
  2995.8  2995.8  0.0  1.0  0.0  -999.25  -999.25  -999.25  0.0  0.0
  2996.0  2996.0  0.0  1.0  0.0  -999.25  -999.25  -999.25  0.0  0.0
  2996.2  2996.2  0.0  1.0  0.0  -999.25  -999.25  -999.25  0.0  0.0
  2996.4  2996.3999  0.0  1.0  0.0  -999.25  -999.25  -999.25  0.0  0.0
  2996.6  2996.6001  0.0  1.0  0.0  -999.25  -999.25  -999.25  0.0  0.0
  2996.8  2996.8  0.0  1.0  0.0  -999.25  -999.25  -999.25  0.0  0.0
  2997.0  2997.0  0.0  1.0  0.0  -999.25  -999.25  -999.25  0.0  0.0
  2997.2  2997.2  0.0  1.0  0.0  -999.25  -999.25  -999.25  0.0  0.0
  2997.4  2997.3999  0.0  1.0  0.0  -999.25  -999.25  -999.25  0.0  0.0
  2997.6  2997.6001  0.0  1.0  0.0  -999.25  -999.25  -999.25  0.0  0.0
  2997.8  2997.8  0.0  1.0  0.0  -999.25  -999.25  -999.25  0.0  0.0
  2998.0  2998.0  0.0  1.0  0.0  -999.25  -999.25  -999.25  0.0  0.0
  2998.2  2998.2  0.0  1.0  0.0  -999.25  -999.25  -999.25  0.0  0.0
  2998.4  2998.3999  0.0  1.0  0.0  -999.25  -999.25  -999.25  0.0  0.0
  2998.6  2998.6001  0.0  1.0  0.0  -999.25  -999.25  -999.25  0.0  0.0
  2998.8  2998.8  0.0  1.0  0.0  -999.25  -999.25  -999.25  0.0  0.0
  2999.0  2999.0  0.0  1.0  0.0  -999.25  -999.25  -999.25  0.0  0.0
  2999.2  2999.2  0.0  1.0  0.0  -999.25  -999.25  -999.25  0.0  0.0
  2999.4  2999.3999  0.0  1.0  0.0  -999.25  -999.25  -999.25  0.0  0.0
  2999.6  2999.6001  0.0  1.0  0.0  -999.25  -999.25  -999.25  0.0  0.0
  2999.8  2999.8  0.0  1.0  0.0  -999.25  -999.25  -999.25  0.0  0.0
  3000.0  3000.0  0.0  1.0  0.0  -999.25  -999.25  -999.25  0.0  0.0
  3000.2  3000.2  0.0  1.0  0.0  -999.25  -999.25  -999.25  0.0  0.0
  3000.4  3000.3999  0.0  1.0  0.0  -999.25  -999.25  -999.25  0.0  0.0
  3000.6  3000.6001  0.0  1.0  0.0  -999.25  -999.25  -999.25  0.0  0.0
  3000.8  3000.8  0.0  1.0  0.0  -999.25  -999.25  -999.25  0.0  0.0
  3001.0  3001.0  0.0  1.0  0.0  -999.25  -999.25  -999.25  0.0  0.0
  3001.2  3001.2  0.0  1.0  0.0  -999.25  -999.25  -999.25  0.0  0.0
  3001.4  3001.3999  0.0  1.0  0.0  -999.25  -999.25  -999.25  0.0  0.0
  3001.6  3001.6001  0.0  1.0  0.0  -999.25  -999.25  -999.25  0.0  0.0
  3001.8  3001.8  0.0  1.0  0.0  -999.25  -999.25  -999.25  0.0  0.0
  3002.0  3002.0  0.0  1.0  0.0  -999.25  -999.25  -999.25  0.0  0.0
  3002.2  3002.2  0.0  1.0  0.0  -999.25  -999.25  -999.25  0.0  0.0
  3002.4  3002.3999  0.0  1.0  0.0  -999.25  -999.25  -999.25  0.0  0.0
  3002.6  3002.6001  0.0  1.0  0.0  -999.25  -999.25  -999.25  0.0  0.0
  3002.8  3002.8  0.0  1.0  0.0  -999.25  -999.25  -999.25  0.0  0.0
  3003.0  3003.0  0.0  1.0  0.0  -999.25  -999.25  -999.25  0.0  0.0
  3003.2  3003.2  0.0  1.0  0.0  -999.25  -999.25  -999.25  0.0  0.0
  3003.4  3003.3999  0.0  1.0  0.0  -999.25  -999.25  -999.25  0.0  0.0
  3003.6  3003.6001  0.0  1.0  0.0  -999.25  -999.25  -999.25  0.0  0.0
  3003.8  3003.8  0.0  1.0  0.0  -999.25  -999.25  -999.25  0.0  0.0
  3004.0  3004.0  0.0  1.0  0.0  -999.25  -999.25  -999.25  0.0  0.0
  3004.2  3004.2  0.0  1.0  0.0  -999.25  -999.25  -999.25  0.0  0.0
  3004.4  3004.3999  0.0  1.0  0.0  -999.25  -999.25  -999.25  0.0  0.0
  3004.6  3004.6001  0.0  1.0  0.0  -999.25  -999.25  -999.25  0.0  0.0
  3004.8  3004.8  0.0  1.0  0.0  -999.25  -999.25  -999.25  0.0  0.0
  3005.0  3005.0  0.0  1.0  0.0  -999.25  -999.25  -999.25  0.0  0.0
  3005.2  3005.2  0.0  1.0  0.0  -999.25  -999.25  -999.25  0.0  0.0
  3005.4  3005.3999  0.0  1.0  0.0  -999.25  -999.25  -999.25  0.0  0.0
  3005.6  3005.6001  0.0  1.0  0.0  -999.25  -999.25  -999.25  0.0  0.0
  3005.8  3005.8  0.0  1.0  0.0  -999.25  -999.25  -999.25  0.0  0.0
  3006.0  3006.0  0.0  1.0  0.0  -999.25  -999.25  -999.25  0.0  0.0
  3006.2  3006.2  0.0  1.0  0.0  -999.25  -999.25  -999.25  0.0  0.0
  3006.4  3006.3999  0.0  1.0  0.0  -999.25  -999.25  -999.25  0.0  0.0
  3006.6  3006.6001  0.0  1.0  0.0  -999.25  -999.25  -999.25  0.0  0.0
  3006.8  3006.8  0.0  1.0  0.0  -999.25  -999.25  -999.25  0.0  0.0
  3007.0  3007.0  0.0  1.0  0.0  -999.25  -999.25  -999.25  0.0  0.0
  3007.2  3007.2  0.0  1.0  0.0  -999.25  -999.25  -999.25  0.0  0.0
  3007.4  3007.3999  0.0  1.0  0.0  -999.25  -999.25  -999.25  0.0  0.0
  3007.6  3007.6001  0.0  1.0  0.0  -999.25  -999.25  -999.25  0.0  0.0
  3007.8  3007.8  0.0  1.0  0.0  -999.25  -999.25  -999.25  0.0  0.0
  3008.0  3008.0  0.0  1.0  0.0  -999.25  -999.25  -999.25  0.0  0.0
  3008.2  3008.2  0.0  1.0  0.0  -999.25  -999.25  -999.25  0.0  0.0
  3008.4  3008.3999  0.0  1.0  0.0  -999.25  -999.25  -999.25  0.0  0.0
  3008.6  3008.6001  0.0  1.0  0.0  -999.25  -999.25  -999.25  0.0  0.0
  3008.8  3008.8  0.0  1.0  0.0  -999.25  -999.25  -999.25  0.0  0.0
  3009.0  3009.0  0.0  1.0  0.0  -999.25  -999.25  -999.25  0.0  0.0
  3009.2  3009.2  0.0  1.0  0.0  -999.25  -999.25  -999.25  0.0  0.0
  3009.4  3009.3999  0.0  1.0  0.0  -999.25  -999.25  -999.25  0.0  0.0
  3009.6  3009.6001  0.0  1.0  0.0  -999.25  -999.25  -999.25  0.0  0.0
  3009.8  3009.8  0.0  1.0  0.0  -999.25  -999.25  -999.25  0.0  0.0
  3010.0  3010.0  0.0  1.0  0.0  -999.25  -999.25  -999.25  0.0  0.0
  3010.2  3010.2  0.0  1.0  0.0  -999.25  -999.25  -999.25  0.0  0.0
  3010.4  3010.3999  0.0  1.0  0.0  -999.25  -999.25  -999.25  0.0  0.0
  3010.6  3010.6001  0.0  1.0  0.0  -999.25  -999.25  -999.25  0.0  0.0
  3010.8  3010.8  0.0  1.0  0.0  -999.25  -999.25  -999.25  0.0  0.0
  3011.0  3011.0  0.0  1.0  0.0  -999.25  -999.25  -999.25  0.0  0.0
  3011.2  3011.2  0.0  1.0  0.0  -999.25  -999.25  -999.25  0.0  0.0
  3011.4  3011.3999  0.0  1.0  0.0  -999.25  -999.25  -999.25  0.0  0.0
  3011.6  3011.6001  0.0  1.0  0.0  -999.25  -999.25  -999.25  0.0  0.0
  3011.8  3011.8  0.0  1.0  0.0  -999.25  -999.25  -999.25  0.0  0.0
  3012.0  3012.0  0.0  1.0  0.0  -999.25  -999.25  -999.25  0.0  0.0
  3012.2  3012.2  0.0  1.0  0.0  -999.25  -999.25  -999.25  0.0  0.0
  3012.4  3012.3999  0.0  1.0  0.0  -999.25  -999.25  -999.25  0.0  0.0
  3012.6  3012.6001  0.0  1.0  0.0  -999.25  -999.25  -999.25  0.0  0.0
  3012.8  3012.8  0.0  1.0  0.0  -999.25  -999.25  -999.25  0.0  0.0
  3013.0  3013.0  0.0  1.0  0.0  -999.25  -999.25  -999.25  0.0  0.0
  3013.2  3013.2  0.0  1.0  0.0  -999.25  -999.25  -999.25  0.0  0.0
  3013.4  3013.3999  0.0  1.0  0.0  -999.25  -999.25  -999.25  0.0  0.0
  3013.6  3013.6001  0.0  1.0  0.0  -999.25  -999.25  -999.25  0.0  0.0
  3013.8  3013.8  0.0  1.0  0.0  -999.25  -999.25  -999.25  0.0  0.0
  3014.0  3014.0  0.0  1.0  0.0  -999.25  -999.25  -999.25  0.0  0.0
  3014.2  3014.2  0.0  1.0  0.0  -999.25  -999.25  -999.25  0.0  0.0
  3014.4  3014.3999  0.0  1.0  0.0  -999.25  -999.25  -999.25  0.0  0.0
  3014.6  3014.6001  0.0  1.0  0.0  -999.25  -999.25  -999.25  0.0  0.0
  3014.8  3014.8  0.0  1.0  0.0  -999.25  -999.25  -999.25  0.0  0.0
  3015.0  3015.0  0.0  1.0  0.0  -999.25  -999.25  -999.25  0.0  0.0
  3015.2  3015.2  0.0  1.0  0.0  -999.25  -999.25  -999.25  0.0  0.0
  3015.4  3015.3999  0.0  1.0  0.0  -999.25  -999.25  -999.25  0.0  0.0
  3015.6  3015.6001  0.0  1.0  0.0  -999.25  -999.25  -999.25  0.0  0.0
  3015.8  3015.8  0.0  1.0  0.0  -999.25  -999.25  -999.25  0.0  0.0
  3016.0  3016.0  0.0  1.0  0.0  -999.25  -999.25  -999.25  0.0  0.0
  3016.2  3016.2  0.0  1.0  0.0  -999.25  -999.25  -999.25  0.0  0.0
  3016.4  3016.3999  0.0  1.0  0.0  -999.25  -999.25  -999.25  0.0  0.0
  3016.6  3016.6001  0.0  1.0  0.0  -999.25  -999.25  -999.25  0.0  0.0
  3016.8  3016.8  0.0  1.0  0.0  -999.25  -999.25  -999.25  0.0  0.0
  3017.0  3017.0  0.0  1.0  0.0  -999.25  -999.25  -999.25  0.0  0.0
