~VERSION INFORMATION
 VERS. 2.0  : 
 WRAP. YES  :
~WELL INFORMATION
 LOC.X    :
 SRVC.X    :
 COMP.X    :
 WELL.X  100  :
 STOP.X  3220.00000000  :
 UWI.X  ccaf8416-11fb-4f20-a397-fdc46fcefdd8  :
 STRT.X  2736.00000000  :
 STEP.X  0.20000000  :
 API.X    :
 PROV.X    :
 DATE.X  Tuesday December 08 2009 10  :
 NULL.X  -999.250000  :
 FLD.X    :
~CURVE INFORMATION
 DEPTXXXX.X  :
 DEPTH.X  :
 RES.X  :
 LT.X  :
 ST.X  :
 Ro.X  :
 Kgl.X  :
 Kpr.X  :
 Kos.X  :
 Facies.X  :
~PARAMETERS INFORMATION
 P2.X    : X
 P1.X    : X
~A  DEPTXXXX  DEPTH  RES  LT  ST  Ro  Kgl  Kpr  Kos  Facies
# ...
  3201.6  3201.6001  0.0  1.0  0.0  -999.25  -999.25  -999.25  0.0  0.0
  3201.8  3201.8  0.0  1.0  0.0  -999.25  -999.25  -999.25  0.0  0.0
  3202.0  3202.0  0.0  1.0  0.0  -999.25  -999.25  -999.25  0.0  0.0
  3202.2  3202.2  0.0  1.0  0.0  -999.25  -999.25  -999.25  0.0  0.0
  3202.4  3202.3999  0.0  1.0  0.0  -999.25  -999.25  -999.25  0.0  0.0
  3202.6  3202.6001  0.0  1.0  0.0  -999.25  -999.25  -999.25  0.0  0.0
  3202.8  3202.8  0.0  1.0  0.0  -999.25  -999.25  -999.25  0.0  0.0
  3203.0  3203.0  0.0  1.0  0.0  -999.25  -999.25  -999.25  0.0  0.0
  3203.2  3203.2  0.0  1.0  0.0  -999.25  -999.25  -999.25  0.0  0.0
  3203.4  3203.3999  0.0  1.0  0.0  -999.25  -999.25  -999.25  0.0  0.0
  3203.6  3203.6001  0.0  1.0  0.0  -999.25  -999.25  -999.25  0.0  0.0
  3203.8  3203.8  0.0  1.0  0.0  -999.25  -999.25  -999.25  0.0  0.0
  3204.0  3204.0  0.0  1.0  0.0  -999.25  -999.25  -999.25  0.0  0.0
  3204.2  3204.2  0.0  1.0  0.0  -999.25  -999.25  -999.25  0.0  0.0
  3204.4  3204.3999  0.0  1.0  0.0  -999.25  -999.25  -999.25  0.0  0.0
  3204.6  3204.6001  0.0  1.0  0.0  -999.25  -999.25  -999.25  0.0  0.0
  3204.8  3204.8  0.0  1.0  0.0  -999.25  -999.25  -999.25  0.0  0.0
  3205.0  3205.0  0.0  1.0  0.0  -999.25  -999.25  -999.25  0.0  0.0
  3205.2  3205.2  0.0  1.0  0.0  -999.25  -999.25  -999.25  0.0  0.0
  3205.4  3205.3999  0.0  1.0  0.0  -999.25  -999.25  -999.25  0.0  0.0
  3205.6  3205.6001  0.0  1.0  0.0  -999.25  -999.25  -999.25  0.0  0.0
  3205.8  3205.8  0.0  1.0  0.0  -999.25  -999.25  -999.25  0.0  0.0
  3206.0  3206.0  0.0  1.0  0.0  -999.25  -999.25  -999.25  0.0  0.0
  3206.2  3206.2  0.0  1.0  0.0  -999.25  -999.25  -999.25  0.0  0.0
  3206.4  3206.3999  0.0  1.0  0.0  -999.25  -999.25  -999.25  0.0  0.0
  3206.6  3206.6001  0.0  1.0  0.0  -999.25  -999.25  -999.25  0.0  0.0
  3206.8  3206.8  0.0  1.0  0.0  -999.25  -999.25  -999.25  0.0  0.0
  3207.0  3207.0  0.0  1.0  0.0  -999.25  -999.25  -999.25  0.0  0.0
  3207.2  3207.2  0.0  1.0  0.0  -999.25  -999.25  -999.25  0.0  0.0
  3207.4  3207.3999  0.0  1.0  0.0  -999.25  -999.25  -999.25  0.0  0.0
  3207.6  3207.6001  0.0  1.0  0.0  -999.25  -999.25  -999.25  0.0  0.0
  3207.8  3207.8  0.0  1.0  0.0  -999.25  -999.25  -999.25  0.0  0.0
  3208.0  3208.0  0.0  1.0  0.0  -999.25  -999.25  -999.25  0.0  0.0
  3208.2  3208.2  0.0  1.0  0.0  -999.25  -999.25  -999.25  0.0  0.0
  3208.4  3208.3999  0.0  1.0  0.0  -999.25  -999.25  -999.25  0.0  0.0
  3208.6  3208.6001  0.0  1.0  0.0  -999.25  -999.25  -999.25  0.0  0.0
  3208.8  3208.8  0.0  1.0  0.0  -999.25  -999.25  -999.25  0.0  0.0
  3209.0  3209.0  0.0  1.0  0.0  -999.25  -999.25  -999.25  0.0  0.0
  3209.2  3209.2  0.0  1.0  0.0  -999.25  -999.25  -999.25  0.0  0.0
  3209.4  3209.3999  0.0  1.0  0.0  -999.25  -999.25  -999.25  0.0  0.0
  3209.6  3209.6001  0.0  1.0  0.0  -999.25  -999.25  -999.25  0.0  0.0
  3209.8  3209.8  0.0  1.0  0.0  -999.25  -999.25  -999.25  0.0  0.0
  3210.0  3210.0  0.0  1.0  0.0  -999.25  -999.25  -999.25  0.0  0.0
  3210.2  3210.2  0.0  1.0  0.0  -999.25  -999.25  -999.25  0.0  0.0
  3210.4  3210.3999  0.0  1.0  0.0  -999.25  -999.25  -999.25  0.0  0.0
  3210.6  3210.6001  0.0  1.0  0.0  -999.25  -999.25  -999.25  0.0  0.0
  3210.8  3210.8  0.0  1.0  0.0  -999.25  -999.25  -999.25  0.0  0.0
  3211.0  3211.0  0.0  1.0  0.0  -999.25  -999.25  -999.25  0.0  0.0
  3211.2  3211.2  0.0  1.0  0.0  -999.25  -999.25  -999.25  0.0  0.0
  3211.4  3211.3999  0.0  1.0  0.0  -999.25  -999.25  -999.25  0.0  0.0
  3211.6  3211.6001  0.0  1.0  0.0  -999.25  -999.25  -999.25  0.0  0.0
  3211.8  3211.8  0.0  1.0  0.0  -999.25  -999.25  -999.25  0.0  0.0
  3212.0  3212.0  0.0  1.0  0.0  -999.25  -999.25  -999.25  0.0  0.0
  3212.2  3212.2  0.0  1.0  0.0  -999.25  -999.25  -999.25  0.0  0.0
  3212.4  3212.3999  0.0  1.0  0.0  -999.25  -999.25  -999.25  0.0  0.0
  3212.6  3212.6001  0.0  1.0  0.0  -999.25  -999.25  -999.25  0.0  0.0
  3212.8  3212.8  0.0  1.0  0.0  -999.25  -999.25  -999.25  0.0  0.0
  3213.0  3213.0  0.0  1.0  0.0  -999.25  -999.25  -999.25  0.0  0.0
  3213.2  3213.2  0.0  1.0  0.0  -999.25  -999.25  -999.25  0.0  0.0
  3213.4  3213.3999  0.0  1.0  0.0  -999.25  -999.25  -999.25  0.0  0.0
  3213.6  3213.6001  0.0  1.0  0.0  -999.25  -999.25  -999.25  0.0  0.0
  3213.8  3213.8  0.0  1.0  0.0  -999.25  -999.25  -999.25  0.0  0.0
  3214.0  3214.0  0.0  1.0  0.0  -999.25  -999.25  -999.25  0.0  0.0
  3214.2  3214.2  0.0  1.0  0.0  -999.25  -999.25  -999.25  0.0  0.0
  3214.4  3214.3999  0.0  1.0  0.0  -999.25  -999.25  -999.25  0.0  0.0
  3214.6  3214.6001  0.0  1.0  0.0  -999.25  -999.25  -999.25  0.0  0.0
  3214.8  3214.8  0.0  1.0  0.0  -999.25  -999.25  -999.25  0.0  0.0
  3215.0  3215.0  0.0  1.0  0.0  -999.25  -999.25  -999.25  0.0  0.0
  3215.2  3215.2  0.0  1.0  0.0  -999.25  -999.25  -999.25  0.0  0.0
  3215.4  3215.3999  0.0  1.0  0.0  -999.25  -999.25  -999.25  0.0  0.0
  3215.6  3215.6001  0.0  1.0  0.0  -999.25  -999.25  -999.25  0.0  0.0
  3215.8  3215.8  0.0  1.0  0.0  -999.25  -999.25  -999.25  0.0  0.0
  3216.0  3216.0  0.0  1.0  0.0  -999.25  -999.25  -999.25  0.0  0.0
  3216.2  3216.2  0.0  1.0  0.0  -999.25  -999.25  -999.25  0.0  0.0
  3216.4  3216.3999  0.0  1.0  0.0  -999.25  -999.25  -999.25  0.0  0.0
  3216.6  3216.6001  0.0  1.0  0.0  -999.25  -999.25  -999.25  0.0  0.0
  3216.8  3216.8  0.0  1.0  0.0  -999.25  -999.25  -999.25  0.0  0.0
  3217.0  3217.0  0.0  1.0  0.0  -999.25  -999.25  -999.25  0.0  0.0
  3217.2  3217.2  0.0  1.0  0.0  -999.25  -999.25  -999.25  0.0  0.0
  3217.4  3217.3999  0.0  1.0  0.0  -999.25  -999.25  -999.25  0.0  0.0
  3217.6  3217.6001  0.0  1.0  0.0  -999.25  -999.25  -999.25  0.0  0.0
  3217.8  3217.8  0.0  1.0  0.0  -999.25  -999.25  -999.25  0.0  0.0
  3218.0  3218.0  0.0  1.0  0.0  -999.25  -999.25  -999.25  0.0  0.0
  3218.2  3218.2  0.0  0.0  0.0  0.0  0.0  -999.25  0.0  0.0
  3218.4  3218.3999  0.0  0.0  0.0  0.0  0.0  -999.25  0.0  0.0
  3218.6  3218.6001  0.0  0.0  0.0  0.0  0.0  -999.25  0.0  0.0
  3218.8  3218.8  0.0  0.0  0.0  0.0  0.0  -999.25  0.0  0.0
  3219.0  3219.0  0.0  0.0  0.0  0.0  0.0  -999.25  0.0  0.0
  3219.2  3219.2  0.0  0.0  0.0  0.0  0.0  -999.25  0.0  0.0
  3219.4  3219.3999  0.0  0.0  0.0  0.0  0.0  -999.25  0.0  0.0
  3219.6  3219.6001  0.0  0.0  0.0  0.0  0.0  -999.25  0.0  0.0
  3219.8  3219.8  0.0  0.0  0.0  0.0  0.0  -999.25  0.0  0.0
  3220.0  3220.0  0.0  0.0  0.0  0.0  0.0  -999.25  0.0  -999.25
