~VERSION INFORMATION
 VERS. 2.0  : 
 WRAP. YES  :
~WELL INFORMATION
 LOC.X    :
 SRVC.X    :
 COMP.X    :
 WELL.X  100  :
 STOP.X  3220.00000000  :
 UWI.X  ccaf8416-11fb-4f20-a397-fdc46fcefdd8  :
 STRT.X  2736.00000000  :
 STEP.X  0.20000000  :
 API.X    :
 PROV.X    :
 DATE.X  Tuesday December 08 2009 10  :
 NULL.X  -999.250000  :
 FLD.X    :
~CURVE INFORMATION
 DEPTXXXX.X  :
 DEPTH.X  :
 RES.X  :
 LT.X  :
 ST.X  :
 Ro.X  :
 Kgl.X  :
 Kpr.X  :
 Kos.X  :
 Facies.X  :
~PARAMETERS INFORMATION
 P2.X    : X
 P1.X    : X
~A  DEPTXXXX  DEPTH  RES  LT  ST  Ro  Kgl  Kpr  Kos  Facies
# ...
  2829.8  2829.8  0.0  1.0  0.0  -999.25  -999.25  -999.25  0.0  0.0
  2830.0  2830.0  0.0  1.0  0.0  -999.25  -999.25  -999.25  0.0  0.0
  2830.2  2830.2  0.0  1.0  0.0  -999.25  -999.25  -999.25  0.0  0.0
  2830.4  2830.3999  0.0  1.0  0.0  -999.25  -999.25  -999.25  0.0  0.0
  2830.6  2830.6001  0.0  1.0  0.0  -999.25  -999.25  -999.25  0.0  0.0
  2830.8  2830.8  0.0  1.0  0.0  -999.25  -999.25  -999.25  0.0  0.0
  2831.0  2831.0  0.0  1.0  0.0  -999.25  -999.25  -999.25  0.0  0.0
  2831.2  2831.2  0.0  1.0  0.0  -999.25  -999.25  -999.25  0.0  0.0
  2831.4  2831.3999  0.0  1.0  0.0  -999.25  -999.25  -999.25  0.0  0.0
  2831.6  2831.6001  0.0  1.0  0.0  -999.25  -999.25  -999.25  0.0  0.0
  2831.8  2831.8  0.0  1.0  0.0  -999.25  -999.25  -999.25  0.0  0.0
  2832.0  2832.0  0.0  1.0  0.0  -999.25  -999.25  -999.25  0.0  0.0
  2832.2  2832.2  0.0  1.0  0.0  -999.25  -999.25  -999.25  0.0  0.0
  2832.4  2832.3999  0.0  1.0  0.0  -999.25  -999.25  -999.25  0.0  0.0
  2832.6  2832.6001  0.0  1.0  0.0  -999.25  -999.25  -999.25  0.0  0.0
  2832.8  2832.8  0.0  1.0  0.0  -999.25  -999.25  -999.25  0.0  0.0
  2833.0  2833.0  0.0  1.0  0.0  -999.25  -999.25  -999.25  0.0  0.0
  2833.2  2833.2  0.0  1.0  0.0  -999.25  -999.25  -999.25  0.0  0.0
  2833.4  2833.3999  0.0  1.0  0.0  -999.25  -999.25  -999.25  0.0  0.0
  2833.6  2833.6001  0.0  1.0  0.0  -999.25  -999.25  -999.25  0.0  0.0
  2833.8  2833.8  0.0  1.0  0.0  -999.25  -999.25  -999.25  0.0  0.0
  2834.0  2834.0  0.0  1.0  0.0  -999.25  -999.25  -999.25  0.0  0.0
  2834.2  2834.2  0.0  1.0  0.0  -999.25  -999.25  -999.25  0.0  0.0
  2834.4  2834.3999  0.0  1.0  0.0  -999.25  -999.25  -999.25  0.0  0.0
  2834.6  2834.6001  0.0  1.0  0.0  -999.25  -999.25  -999.25  0.0  0.0
  2834.8  2834.8  0.0  1.0  0.0  -999.25  -999.25  -999.25  0.0  0.0
  2835.0  2835.0  0.0  1.0  0.0  -999.25  -999.25  -999.25  0.0  0.0
  2835.2  2835.2  0.0  1.0  0.0  -999.25  -999.25  -999.25  0.0  0.0
  2835.4  2835.3999  0.0  1.0  0.0  -999.25  -999.25  -999.25  0.0  0.0
  2835.6  2835.6001  0.0  1.0  0.0  -999.25  -999.25  -999.25  0.0  0.0
  2835.8  2835.8  0.0  1.0  0.0  -999.25  -999.25  -999.25  0.0  0.0
  2836.0  2836.0  0.0  1.0  0.0  -999.25  -999.25  -999.25  0.0  0.0
  2836.2  2836.2  0.0  1.0  0.0  -999.25  -999.25  -999.25  0.0  0.0
  2836.4  2836.3999  0.0  1.0  0.0  -999.25  -999.25  -999.25  0.0  0.0
  2836.6  2836.6001  0.0  1.0  0.0  -999.25  -999.25  -999.25  0.0  0.0
  2836.8  2836.8  0.0  1.0  0.0  -999.25  -999.25  -999.25  0.0  0.0
  2837.0  2837.0  0.0  1.0  0.0  -999.25  -999.25  -999.25  0.0  0.0
  2837.2  2837.2  0.0  1.0  0.0  -999.25  -999.25  -999.25  0.0  0.0
  2837.4  2837.3999  0.0  1.0  0.0  -999.25  -999.25  -999.25  0.0  0.0
  2837.6  2837.6001  0.0  1.0  0.0  -999.25  -999.25  -999.25  0.0  0.0
  2837.8  2837.8  0.0  1.0  0.0  -999.25  -999.25  -999.25  0.0  0.0
  2838.0  2838.0  0.0  1.0  0.0  -999.25  -999.25  -999.25  0.0  0.0
  2838.2  2838.2  0.0  1.0  0.0  -999.25  -999.25  -999.25  0.0  0.0
  2838.4  2838.3999  0.0  1.0  0.0  -999.25  -999.25  -999.25  0.0  0.0
  2838.6  2838.6001  0.0  1.0  0.0  -999.25  -999.25  -999.25  0.0  0.0
  2838.8  2838.8  0.0  1.0  0.0  -999.25  -999.25  -999.25  0.0  0.0
  2839.0  2839.0  0.0  1.0  0.0  -999.25  -999.25  -999.25  0.0  0.0
  2839.2  2839.2  0.0  1.0  0.0  -999.25  -999.25  -999.25  0.0  0.0
  2839.4  2839.3999  0.0  1.0  0.0  -999.25  -999.25  -999.25  0.0  0.0
  2839.6  2839.6001  0.0  1.0  0.0  -999.25  -999.25  -999.25  0.0  0.0
  2839.8  2839.8  0.0  1.0  0.0  -999.25  -999.25  -999.25  0.0  0.0
  2840.0  2840.0  0.0  1.0  0.0  -999.25  -999.25  -999.25  0.0  0.0
  2840.2  2840.2  0.0  1.0  0.0  -999.25  -999.25  -999.25  0.0  0.0
  2840.4  2840.3999  0.0  1.0  0.0  -999.25  -999.25  -999.25  0.0  0.0
  2840.6  2840.6001  0.0  1.0  0.0  -999.25  -999.25  -999.25  0.0  0.0
  2840.8  2840.8  0.0  1.0  0.0  -999.25  -999.25  -999.25  0.0  0.0
  2841.0  2841.0  0.0  1.0  0.0  -999.25  -999.25  -999.25  0.0  0.0
  2841.2  2841.2  0.0  1.0  0.0  -999.25  -999.25  -999.25  0.0  0.0
  2841.4  2841.3999  0.0  1.0  0.0  -999.25  -999.25  -999.25  0.0  0.0
  2841.6  2841.6001  0.0  1.0  0.0  -999.25  -999.25  -999.25  0.0  0.0
  2841.8  2841.8  0.0  1.0  0.0  -999.25  -999.25  -999.25  0.0  0.0
  2842.0  2842.0  0.0  1.0  0.0  -999.25  -999.25  -999.25  0.0  0.0
  2842.2  2842.2  0.0  1.0  0.0  -999.25  -999.25  -999.25  0.0  0.0
  2842.4  2842.3999  0.0  1.0  0.0  -999.25  -999.25  -999.25  0.0  0.0
  2842.6  2842.6001  0.0  1.0  0.0  -999.25  -999.25  -999.25  0.0  0.0
  2842.8  2842.8  0.0  1.0  0.0  -999.25  -999.25  -999.25  0.0  0.0
  2843.0  2843.0  0.0  1.0  0.0  -999.25  -999.25  -999.25  0.0  0.0
  2843.2  2843.2  0.0  1.0  0.0  -999.25  -999.25  -999.25  0.0  0.0
  2843.4  2843.3999  0.0  1.0  0.0  -999.25  -999.25  -999.25  0.0  0.0
  2843.6  2843.6001  0.0  1.0  0.0  -999.25  -999.25  -999.25  0.0  0.0
  2843.8  2843.8  0.0  1.0  0.0  -999.25  -999.25  -999.25  0.0  0.0
  2844.0  2844.0  0.0  1.0  0.0  -999.25  -999.25  -999.25  0.0  0.0
  2844.2  2844.2  0.0  1.0  0.0  -999.25  -999.25  -999.25  0.0  0.0
  2844.4  2844.3999  0.0  1.0  0.0  -999.25  -999.25  -999.25  0.0  0.0
  2844.6  2844.6001  0.0  1.0  0.0  -999.25  -999.25  -999.25  0.0  0.0
  2844.8  2844.8  0.0  1.0  0.0  -999.25  -999.25  -999.25  0.0  0.0
  2845.0  2845.0  0.0  1.0  0.0  -999.25  -999.25  -999.25  0.0  0.0
  2845.2  2845.2  0.0  1.0  0.0  -999.25  -999.25  -999.25  0.0  0.0
  2845.4  2845.3999  0.0  1.0  0.0  -999.25  -999.25  -999.25  0.0  0.0
  2845.6  2845.6001  0.0  1.0  0.0  -999.25  -999.25  -999.25  0.0  0.0
  2845.8  2845.8  0.0  1.0  0.0  -999.25  -999.25  -999.25  0.0  0.0
  2846.0  2846.0  0.0  1.0  0.0  -999.25  -999.25  -999.25  0.0  0.0
  2846.2  2846.2  0.0  1.0  0.0  -999.25  -999.25  -999.25  0.0  0.0
  2846.4  2846.3999  0.0  1.0  0.0  -999.25  -999.25  -999.25  0.0  0.0
  2846.6  2846.6001  0.0  1.0  0.0  -999.25  -999.25  -999.25  0.0  0.0
  2846.8  2846.8  0.0  1.0  0.0  -999.25  -999.25  -999.25  0.0  0.0
  2847.0  2847.0  0.0  1.0  0.0  -999.25  -999.25  -999.25  0.0  0.0
  2847.2  2847.2  0.0  1.0  0.0  -999.25  -999.25  -999.25  0.0  0.0
  2847.4  2847.3999  0.0  1.0  0.0  -999.25  -999.25  -999.25  0.0  0.0
  2847.6  2847.6001  0.0  1.0  0.0  -999.25  -999.25  -999.25  0.0  0.0
  2847.8  2847.8  0.0  1.0  0.0  -999.25  -999.25  -999.25  0.0  0.0
  2848.0  2848.0  0.0  1.0  0.0  -999.25  -999.25  -999.25  0.0  0.0
  2848.2  2848.2  0.0  1.0  0.0  -999.25  -999.25  -999.25  0.0  0.0
  2848.4  2848.3999  0.0  1.0  0.0  -999.25  -999.25  -999.25  0.0  0.0
  2848.6  2848.6001  0.0  1.0  0.0  -999.25  -999.25  -999.25  0.0  0.0
  2848.8  2848.8  0.0  1.0  0.0  -999.25  -999.25  -999.25  0.0  0.0
  2849.0  2849.0  0.0  1.0  0.0  -999.25  -999.25  -999.25  0.0  0.0
  2849.2  2849.2  0.0  1.0  0.0  -999.25  -999.25  -999.25  0.0  0.0
  2849.4  2849.3999  0.0  1.0  0.0  -999.25  -999.25  -999.25  0.0  0.0
  2849.6  2849.6001  0.0  1.0  0.0  -999.25  -999.25  -999.25  0.0  0.0
  2849.8  2849.8  0.0  1.0  0.0  -999.25  -999.25  -999.25  0.0  0.0
  2850.0  2850.0  0.0  1.0  0.0  -999.25  -999.25  -999.25  0.0  0.0
  2850.2  2850.2  0.0  1.0  0.0  -999.25  -999.25  -999.25  0.0  0.0
  2850.4  2850.3999  0.0  1.0  0.0  -999.25  -999.25  -999.25  0.0  0.0
  2850.6  2850.6001  0.0  1.0  0.0  -999.25  -999.25  -999.25  0.0  0.0
  2850.8  2850.8  0.0  1.0  0.0  -999.25  -999.25  -999.25  0.0  0.0
  2851.0  2851.0  0.0  1.0  0.0  -999.25  -999.25  -999.25  0.0  0.0
  2851.2  2851.2  0.0  1.0  0.0  -999.25  -999.25  -999.25  0.0  0.0
  2851.4  2851.3999  0.0  1.0  0.0  -999.25  -999.25  -999.25  0.0  0.0
  2851.6  2851.6001  0.0  1.0  0.0  -999.25  -999.25  -999.25  0.0  0.0
  2851.8  2851.8  0.0  1.0  0.0  -999.25  -999.25  -999.25  0.0  0.0
  2852.0  2852.0  0.0  1.0  0.0  -999.25  -999.25  -999.25  0.0  0.0
  2852.2  2852.2  0.0  1.0  0.0  -999.25  -999.25  -999.25  0.0  0.0
  2852.4  2852.3999  0.0  1.0  0.0  -999.25  -999.25  -999.25  0.0  0.0
