~VERSION INFORMATION
 VERS. 2.0  : 
 WRAP. YES  :
~WELL INFORMATION
 LOC.X    :
 SRVC.X    :
 COMP.X    :
 WELL.X  100  :
 STOP.X  3220.00000000  :
 UWI.X  ccaf8416-11fb-4f20-a397-fdc46fcefdd8  :
 STRT.X  2736.00000000  :
 STEP.X  0.20000000  :
 API.X    :
 PROV.X    :
 DATE.X  Tuesday December 08 2009 10  :
 NULL.X  -999.250000  :
 FLD.X    :
~CURVE INFORMATION
 DEPTXXXX.X  :
 DEPTH.X  :
 RES.X  :
 LT.X  :
 ST.X  :
 Ro.X  :
 Kgl.X  :
 Kpr.X  :
 Kos.X  :
 Facies.X  :
~PARAMETERS INFORMATION
 P2.X    : X
 P1.X    : X
~A  DEPTXXXX  DEPTH  RES  LT  ST  Ro  Kgl  Kpr  Kos  Facies
# ...
  3040.0  3040.0  0.0  1.0  0.0  -999.25  -999.25  -999.25  0.0  0.0
  3040.2  3040.2  0.0  1.0  0.0  -999.25  -999.25  -999.25  0.0  0.0
  3040.4  3040.3999  0.0  1.0  0.0  -999.25  -999.25  -999.25  0.0  0.0
  3040.6  3040.6001  0.0  1.0  0.0  -999.25  -999.25  -999.25  0.0  0.0
  3040.8  3040.8  0.0  1.0  0.0  -999.25  -999.25  -999.25  0.0  0.0
  3041.0  3041.0  0.0  1.0  0.0  -999.25  -999.25  -999.25  0.0  0.0
  3041.2  3041.2  0.0  1.0  0.0  -999.25  -999.25  -999.25  0.0  0.0
  3041.4  3041.3999  0.0  1.0  0.0  -999.25  -999.25  -999.25  0.0  0.0
  3041.6  3041.6001  0.0  1.0  0.0  -999.25  -999.25  -999.25  0.0  0.0
  3041.8  3041.8  0.0  1.0  0.0  -999.25  -999.25  -999.25  0.0  0.0
  3042.0  3042.0  0.0  1.0  0.0  -999.25  -999.25  -999.25  0.0  0.0
  3042.2  3042.2  0.0  1.0  0.0  -999.25  -999.25  -999.25  0.0  0.0
  3042.4  3042.3999  0.0  1.0  0.0  -999.25  -999.25  -999.25  0.0  0.0
  3042.6  3042.6001  0.0  1.0  0.0  -999.25  -999.25  -999.25  0.0  0.0
  3042.8  3042.8  0.0  1.0  0.0  -999.25  -999.25  -999.25  0.0  0.0
  3043.0  3043.0  0.0  1.0  0.0  -999.25  -999.25  -999.25  0.0  0.0
  3043.2  3043.2  0.0  1.0  0.0  -999.25  -999.25  -999.25  0.0  0.0
  3043.4  3043.3999  0.0  1.0  0.0  -999.25  -999.25  -999.25  0.0  0.0
  3043.6  3043.6001  0.0  1.0  0.0  -999.25  -999.25  -999.25  0.0  0.0
  3043.8  3043.8  0.0  1.0  0.0  -999.25  -999.25  -999.25  0.0  0.0
  3044.0  3044.0  0.0  1.0  0.0  -999.25  -999.25  -999.25  0.0  0.0
  3044.2  3044.2  0.0  1.0  0.0  -999.25  -999.25  -999.25  0.0  0.0
  3044.4  3044.3999  0.0  1.0  0.0  -999.25  -999.25  -999.25  0.0  0.0
  3044.6  3044.6001  0.0  1.0  0.0  -999.25  -999.25  -999.25  0.0  0.0
  3044.8  3044.8  0.0  1.0  0.0  -999.25  -999.25  -999.25  0.0  0.0
  3045.0  3045.0  0.0  1.0  0.0  -999.25  -999.25  -999.25  0.0  0.0
  3045.2  3045.2  0.0  1.0  0.0  -999.25  -999.25  -999.25  0.0  0.0
  3045.4  3045.3999  0.0  1.0  0.0  -999.25  -999.25  -999.25  0.0  0.0
  3045.6  3045.6001  0.0  1.0  0.0  -999.25  -999.25  -999.25  0.0  0.0
  3045.8  3045.8  0.0  1.0  0.0  -999.25  -999.25  -999.25  0.0  0.0
  3046.0  3046.0  0.0  1.0  0.0  -999.25  -999.25  -999.25  0.0  0.0
  3046.2  3046.2  0.0  1.0  0.0  -999.25  -999.25  -999.25  0.0  0.0
  3046.4  3046.3999  0.0  1.0  0.0  -999.25  -999.25  -999.25  0.0  0.0
  3046.6  3046.6001  0.0  1.0  0.0  -999.25  -999.25  -999.25  0.0  0.0
  3046.8  3046.8  0.0  1.0  0.0  -999.25  -999.25  -999.25  0.0  0.0
  3047.0  3047.0  0.0  1.0  0.0  -999.25  -999.25  -999.25  0.0  0.0
  3047.2  3047.2  0.0  1.0  0.0  -999.25  -999.25  -999.25  0.0  0.0
  3047.4  3047.3999  0.0  1.0  0.0  -999.25  -999.25  -999.25  0.0  0.0
  3047.6  3047.6001  0.0  1.0  0.0  -999.25  -999.25  -999.25  0.0  0.0
  3047.8  3047.8  0.0  1.0  0.0  -999.25  -999.25  -999.25  0.0  0.0
  3048.0  3048.0  0.0  1.0  0.0  -999.25  -999.25  -999.25  0.0  0.0
  3048.2  3048.2  0.0  1.0  0.0  -999.25  -999.25  -999.25  0.0  0.0
  3048.4  3048.3999  0.0  1.0  0.0  -999.25  -999.25  -999.25  0.0  0.0
  3048.6  3048.6001  0.0  1.0  0.0  -999.25  -999.25  -999.25  0.0  0.0
  3048.8  3048.8  0.0  1.0  0.0  -999.25  -999.25  -999.25  0.0  0.0
  3049.0  3049.0  0.0  1.0  0.0  -999.25  -999.25  -999.25  0.0  0.0
  3049.2  3049.2  0.0  1.0  0.0  -999.25  -999.25  -999.25  0.0  0.0
  3049.4  3049.3999  0.0  1.0  0.0  -999.25  -999.25  -999.25  0.0  0.0
  3049.6  3049.6001  0.0  1.0  0.0  -999.25  -999.25  -999.25  0.0  0.0
  3049.8  3049.8  0.0  1.0  0.0  -999.25  -999.25  -999.25  0.0  0.0
  3050.0  3050.0  0.0  1.0  0.0  -999.25  -999.25  -999.25  0.0  0.0
  3050.2  3050.2  0.0  1.0  0.0  -999.25  -999.25  -999.25  0.0  0.0
  3050.4  3050.3999  0.0  1.0  0.0  -999.25  -999.25  -999.25  0.0  0.0
  3050.6  3050.6001  0.0  1.0  0.0  -999.25  -999.25  -999.25  0.0  0.0
  3050.8  3050.8  0.0  1.0  0.0  -999.25  -999.25  -999.25  0.0  0.0
  3051.0  3051.0  0.0  1.0  0.0  -999.25  -999.25  -999.25  0.0  0.0
  3051.2  3051.2  0.0  1.0  0.0  -999.25  -999.25  -999.25  0.0  0.0
  3051.4  3051.3999  0.0  1.0  0.0  -999.25  -999.25  -999.25  0.0  0.0
  3051.6  3051.6001  0.0  1.0  0.0  -999.25  -999.25  -999.25  0.0  0.0
  3051.8  3051.8  0.0  1.0  0.0  -999.25  -999.25  -999.25  0.0  0.0
  3052.0  3052.0  0.0  1.0  0.0  -999.25  -999.25  -999.25  0.0  0.0
  3052.2  3052.2  0.0  1.0  0.0  -999.25  -999.25  -999.25  0.0  0.0
  3052.4  3052.3999  0.0  0.0  0.0  0.0  0.0  -999.25  0.0  0.0
  3052.6  3052.6001  0.0  0.0  0.0  0.0  0.0  -999.25  0.0  0.0
  3052.8  3052.8  0.0  0.0  0.0  0.0  0.0  -999.25  0.0  0.0
  3053.0  3053.0  0.0  0.0  0.0  0.0  0.0  -999.25  0.0  0.0
  3053.2  3053.2  0.0  0.0  0.0  0.0  0.0  -999.25  0.0  0.0
  3053.4  3053.3999  0.0  0.0  0.0  0.0  0.0  -999.25  0.0  0.0
  3053.6  3053.6001  0.0  0.0  0.0  0.0  0.0  -999.25  0.0  0.0
  3053.8  3053.8  0.0  0.0  0.0  0.0  0.0  -999.25  0.0  0.0
  3054.0  3054.0  0.0  0.0  0.0  0.0  0.0  -999.25  0.0  0.0
  3054.2  3054.2  0.0  0.0  0.0  0.0  0.0  -999.25  0.0  0.0
  3054.4  3054.3999  0.0  0.0  0.0  0.0  0.0  -999.25  0.0  0.0
  3054.6  3054.6001  0.0  0.0  0.0  0.0  0.0  -999.25  0.0  0.0
  3054.8  3054.8  0.0  0.0  0.0  0.0  0.0  -999.25  0.0  0.0
  3055.0  3055.0  0.0  0.0  0.0  0.0  0.0  -999.25  0.0  0.0
  3055.2  3055.2  0.0  0.0  0.0  0.0  0.0  -999.25  0.0  0.0
  3055.4  3055.3999  0.0  0.0  0.0  0.0  0.0  -999.25  0.0  0.0
  3055.6  3055.6001  0.0  0.0  0.0  0.0  0.0  -999.25  0.0  0.0
  3055.8  3055.8  0.0  0.0  0.0  0.0  0.0  -999.25  0.0  0.0
  3056.0  3056.0  0.0  1.0  0.0  -999.25  -999.25  -999.25  0.0  0.0
  3056.2  3056.2  0.0  1.0  0.0  -999.25  -999.25  -999.25  0.0  0.0
  3056.4  3056.3999  0.0  1.0  0.0  -999.25  -999.25  -999.25  0.0  0.0
  3056.6  3056.6001  0.0  1.0  0.0  -999.25  -999.25  -999.25  0.0  0.0
  3056.8  3056.8  0.0  1.0  0.0  -999.25  -999.25  -999.25  0.0  0.0
  3057.0  3057.0  0.0  1.0  0.0  -999.25  -999.25  -999.25  0.0  0.0
  3057.2  3057.2  0.0  1.0  0.0  -999.25  -999.25  -999.25  0.0  0.0
  3057.4  3057.3999  0.0  1.0  0.0  -999.25  -999.25  -999.25  0.0  0.0
  3057.6  3057.6001  0.0  1.0  0.0  -999.25  -999.25  -999.25  0.0  0.0
  3057.8  3057.8  0.0  1.0  0.0  -999.25  -999.25  -999.25  0.0  0.0
  3058.0  3058.0  1.0  3.0  4.0  17.200001  -999.25  0.5  64.900002  1.0
  3058.2  3058.2  1.0  3.0  4.0  17.200001  -999.25  0.5  64.900002  1.0
  3058.4  3058.3999  1.0  3.0  4.0  17.200001  -999.25  1.1  68.5  1.0
  3058.6  3058.6001  1.0  3.0  4.0  17.200001  -999.25  1.1  68.5  1.0
  3058.8  3058.8  1.0  3.0  4.0  17.200001  -999.25  1.1  68.5  1.0
  3059.0  3059.0  1.0  3.0  4.0  17.200001  -999.25  1.1  68.5  1.0
  3059.2  3059.2  1.0  3.0  4.0  17.200001  -999.25  1.1  68.5  1.0
  3059.4  3059.3999  1.0  3.0  4.0  18.200001  -999.25  1.1  69.099998  1.0
  3059.6  3059.6001  1.0  3.0  4.0  18.200001  -999.25  1.1  69.099998  1.0
  3059.8  3059.8  1.0  3.0  4.0  18.200001  -999.25  1.1  69.099998  1.0
  3060.0  3060.0  0.0  0.0  0.0  0.0  0.0  -999.25  0.0  0.0
  3060.2  3060.2  0.0  0.0  0.0  0.0  0.0  -999.25  0.0  0.0
  3060.4  3060.3999  0.0  0.0  0.0  0.0  0.0  -999.25  0.0  0.0
  3060.6  3060.6001  0.0  0.0  0.0  0.0  0.0  -999.25  0.0  0.0
  3060.8  3060.8  1.0  3.0  4.0  19.0  -999.25  0.80000001  68.900002  1.0
  3061.0  3061.0  1.0  3.0  4.0  19.0  -999.25  0.80000001  68.900002  1.0
  3061.2  3061.2  0.0  0.0  0.0  0.0  0.0  -999.25  0.0  0.0
  3061.4  3061.3999  0.0  0.0  0.0  0.0  0.0  -999.25  0.0  0.0
  3061.6  3061.6001  0.0  0.0  0.0  0.0  0.0  -999.25  0.0  0.0
  3061.8  3061.8  0.0  0.0  0.0  0.0  0.0  -999.25  0.0  0.0
  3062.0  3062.0  0.0  0.0  0.0  0.0  0.0  -999.25  0.0  0.0
  3062.2  3062.2  0.0  0.0  0.0  0.0  0.0  -999.25  0.0  0.0
  3062.4  3062.3999  0.0  0.0  0.0  0.0  0.0  -999.25  0.0  0.0
  3062.6  3062.6001  0.0  0.0  0.0  0.0  0.0  -999.25  0.0  0.0
  3062.8  3062.8  0.0  0.0  0.0  0.0  0.0  -999.25  0.0  0.0
  3063.0  3063.0  0.0  0.0  0.0  0.0  0.0  -999.25  0.0  0.0
  3063.2  3063.2  0.0  0.0  0.0  0.0  0.0  -999.25  0.0  0.0
  3063.4  3063.3999  0.0  0.0  0.0  0.0  0.0  -999.25  0.0  0.0
