~VERSION INFORMATION
 VERS. 2.0  : 
 WRAP. YES  :
~WELL INFORMATION
 LOC.X    :
 SRVC.X    :
 COMP.X    :
 WELL.X  100  :
 STOP.X  3220.00000000  :
 UWI.X  ccaf8416-11fb-4f20-a397-fdc46fcefdd8  :
 STRT.X  2736.00000000  :
 STEP.X  0.20000000  :
 API.X    :
 PROV.X    :
 DATE.X  Tuesday December 08 2009 10  :
 NULL.X  -999.250000  :
 FLD.X    :
~CURVE INFORMATION
 DEPTXXXX.X  :
 DEPTH.X  :
 RES.X  :
 LT.X  :
 ST.X  :
 Ro.X  :
 Kgl.X  :
 Kpr.X  :
 Kos.X  :
 Facies.X  :
~PARAMETERS INFORMATION
 P2.X    : X
 P1.X    : X
~A  DEPTXXXX  DEPTH  RES  LT  ST  Ro  Kgl  Kpr  Kos  Facies
# ...
  2852.6  2852.6001  0.0  1.0  0.0  -999.25  -999.25  -999.25  0.0  0.0
  2852.8  2852.8  0.0  1.0  0.0  -999.25  -999.25  -999.25  0.0  0.0
  2853.0  2853.0  0.0  1.0  0.0  -999.25  -999.25  -999.25  0.0  0.0
  2853.2  2853.2  0.0  1.0  0.0  -999.25  -999.25  -999.25  0.0  0.0
  2853.4  2853.3999  0.0  1.0  0.0  -999.25  -999.25  -999.25  0.0  0.0
  2853.6  2853.6001  0.0  1.0  0.0  -999.25  -999.25  -999.25  0.0  0.0
  2853.8  2853.8  0.0  1.0  0.0  -999.25  -999.25  -999.25  0.0  0.0
  2854.0  2854.0  0.0  1.0  0.0  -999.25  -999.25  -999.25  0.0  0.0
  2854.2  2854.2  0.0  1.0  0.0  -999.25  -999.25  -999.25  0.0  0.0
  2854.4  2854.3999  0.0  1.0  0.0  -999.25  -999.25  -999.25  0.0  0.0
  2854.6  2854.6001  0.0  1.0  0.0  -999.25  -999.25  -999.25  0.0  0.0
  2854.8  2854.8  0.0  1.0  0.0  -999.25  -999.25  -999.25  0.0  0.0
  2855.0  2855.0  0.0  1.0  0.0  -999.25  -999.25  -999.25  0.0  0.0
  2855.2  2855.2  0.0  1.0  0.0  -999.25  -999.25  -999.25  0.0  0.0
  2855.4  2855.3999  0.0  1.0  0.0  -999.25  -999.25  -999.25  0.0  0.0
  2855.6  2855.6001  0.0  1.0  0.0  -999.25  -999.25  -999.25  0.0  0.0
  2855.8  2855.8  0.0  1.0  0.0  -999.25  -999.25  -999.25  0.0  0.0
  2856.0  2856.0  0.0  1.0  0.0  -999.25  -999.25  -999.25  0.0  0.0
  2856.2  2856.2  0.0  1.0  0.0  -999.25  -999.25  -999.25  0.0  0.0
  2856.4  2856.3999  0.0  1.0  0.0  -999.25  -999.25  -999.25  0.0  0.0
  2856.6  2856.6001  0.0  1.0  0.0  -999.25  -999.25  -999.25  0.0  0.0
  2856.8  2856.8  0.0  1.0  0.0  -999.25  -999.25  -999.25  0.0  0.0
  2857.0  2857.0  0.0  1.0  0.0  -999.25  -999.25  -999.25  0.0  0.0
  2857.2  2857.2  0.0  1.0  0.0  -999.25  -999.25  -999.25  0.0  0.0
  2857.4  2857.3999  0.0  1.0  0.0  -999.25  -999.25  -999.25  0.0  0.0
  2857.6  2857.6001  0.0  1.0  0.0  -999.25  -999.25  -999.25  0.0  0.0
  2857.8  2857.8  0.0  1.0  0.0  -999.25  -999.25  -999.25  0.0  0.0
  2858.0  2858.0  0.0  1.0  0.0  -999.25  -999.25  -999.25  0.0  0.0
  2858.2  2858.2  0.0  1.0  0.0  -999.25  -999.25  -999.25  0.0  0.0
  2858.4  2858.3999  0.0  1.0  0.0  -999.25  -999.25  -999.25  0.0  0.0
  2858.6  2858.6001  0.0  1.0  0.0  -999.25  -999.25  -999.25  0.0  0.0
  2858.8  2858.8  0.0  1.0  0.0  -999.25  -999.25  -999.25  0.0  0.0
  2859.0  2859.0  0.0  1.0  0.0  -999.25  -999.25  -999.25  0.0  0.0
  2859.2  2859.2  0.0  1.0  0.0  -999.25  -999.25  -999.25  0.0  0.0
  2859.4  2859.3999  0.0  1.0  0.0  -999.25  -999.25  -999.25  0.0  0.0
  2859.6  2859.6001  0.0  1.0  0.0  -999.25  -999.25  -999.25  0.0  0.0
  2859.8  2859.8  0.0  1.0  0.0  -999.25  -999.25  -999.25  0.0  0.0
  2860.0  2860.0  0.0  1.0  0.0  -999.25  -999.25  -999.25  0.0  0.0
  2860.2  2860.2  0.0  1.0  0.0  -999.25  -999.25  -999.25  0.0  0.0
  2860.4  2860.3999  0.0  1.0  0.0  -999.25  -999.25  -999.25  0.0  0.0
  2860.6  2860.6001  0.0  1.0  0.0  -999.25  -999.25  -999.25  0.0  0.0
  2860.8  2860.8  0.0  1.0  0.0  -999.25  -999.25  -999.25  0.0  0.0
  2861.0  2861.0  0.0  1.0  0.0  -999.25  -999.25  -999.25  0.0  0.0
  2861.2  2861.2  0.0  1.0  0.0  -999.25  -999.25  -999.25  0.0  0.0
  2861.4  2861.3999  0.0  1.0  0.0  -999.25  -999.25  -999.25  0.0  0.0
  2861.6  2861.6001  0.0  1.0  0.0  -999.25  -999.25  -999.25  0.0  0.0
  2861.8  2861.8  0.0  1.0  0.0  -999.25  -999.25  -999.25  0.0  0.0
  2862.0  2862.0  0.0  1.0  0.0  -999.25  -999.25  -999.25  0.0  0.0
  2862.2  2862.2  0.0  1.0  0.0  -999.25  -999.25  -999.25  0.0  0.0
  2862.4  2862.3999  0.0  1.0  0.0  -999.25  -999.25  -999.25  0.0  0.0
  2862.6  2862.6001  0.0  1.0  0.0  -999.25  -999.25  -999.25  0.0  0.0
  2862.8  2862.8  0.0  1.0  0.0  -999.25  -999.25  -999.25  0.0  0.0
  2863.0  2863.0  0.0  1.0  0.0  -999.25  -999.25  -999.25  0.0  0.0
  2863.2  2863.2  0.0  1.0  0.0  -999.25  -999.25  -999.25  0.0  0.0
  2863.4  2863.3999  0.0  1.0  0.0  -999.25  -999.25  -999.25  0.0  0.0
  2863.6  2863.6001  0.0  1.0  0.0  -999.25  -999.25  -999.25  0.0  0.0
  2863.8  2863.8  0.0  1.0  0.0  -999.25  -999.25  -999.25  0.0  0.0
  2864.0  2864.0  0.0  1.0  0.0  -999.25  -999.25  -999.25  0.0  0.0
  2864.2  2864.2  0.0  1.0  0.0  -999.25  -999.25  -999.25  0.0  0.0
  2864.4  2864.3999  0.0  1.0  0.0  -999.25  -999.25  -999.25  0.0  0.0
  2864.6  2864.6001  0.0  1.0  0.0  -999.25  -999.25  -999.25  0.0  0.0
  2864.8  2864.8  0.0  1.0  0.0  -999.25  -999.25  -999.25  0.0  0.0
  2865.0  2865.0  0.0  1.0  0.0  -999.25  -999.25  -999.25  0.0  0.0
  2865.2  2865.2  0.0  1.0  0.0  -999.25  -999.25  -999.25  0.0  0.0
  2865.4  2865.3999  0.0  1.0  0.0  -999.25  -999.25  -999.25  0.0  0.0
  2865.6  2865.6001  0.0  1.0  0.0  -999.25  -999.25  -999.25  0.0  0.0
  2865.8  2865.8  0.0  1.0  0.0  -999.25  -999.25  -999.25  0.0  0.0
  2866.0  2866.0  0.0  1.0  0.0  -999.25  -999.25  -999.25  0.0  0.0
  2866.2  2866.2  0.0  1.0  0.0  -999.25  -999.25  -999.25  0.0  0.0
  2866.4  2866.3999  0.0  1.0  0.0  -999.25  -999.25  -999.25  0.0  0.0
  2866.6  2866.6001  0.0  1.0  0.0  -999.25  -999.25  -999.25  0.0  0.0
  2866.8  2866.8  0.0  1.0  0.0  -999.25  -999.25  -999.25  0.0  0.0
  2867.0  2867.0  0.0  1.0  0.0  -999.25  -999.25  -999.25  0.0  0.0
  2867.2  2867.2  0.0  1.0  0.0  -999.25  -999.25  -999.25  0.0  0.0
  2867.4  2867.3999  0.0  1.0  0.0  -999.25  -999.25  -999.25  0.0  0.0
  2867.6  2867.6001  0.0  1.0  0.0  -999.25  -999.25  -999.25  0.0  0.0
  2867.8  2867.8  0.0  1.0  0.0  -999.25  -999.25  -999.25  0.0  0.0
  2868.0  2868.0  0.0  1.0  0.0  -999.25  -999.25  -999.25  0.0  0.0
  2868.2  2868.2  0.0  1.0  0.0  -999.25  -999.25  -999.25  0.0  0.0
  2868.4  2868.3999  0.0  1.0  0.0  -999.25  -999.25  -999.25  0.0  0.0
  2868.6  2868.6001  0.0  1.0  0.0  -999.25  -999.25  -999.25  0.0  0.0
  2868.8  2868.8  0.0  1.0  0.0  -999.25  -999.25  -999.25  0.0  0.0
  2869.0  2869.0  0.0  1.0  0.0  -999.25  -999.25  -999.25  0.0  0.0
  2869.2  2869.2  0.0  1.0  0.0  -999.25  -999.25  -999.25  0.0  0.0
  2869.4  2869.3999  0.0  1.0  0.0  -999.25  -999.25  -999.25  0.0  0.0
  2869.6  2869.6001  0.0  1.0  0.0  -999.25  -999.25  -999.25  0.0  0.0
  2869.8  2869.8  0.0  1.0  0.0  -999.25  -999.25  -999.25  0.0  0.0
  2870.0  2870.0  0.0  1.0  0.0  -999.25  -999.25  -999.25  0.0  0.0
  2870.2  2870.2  0.0  1.0  0.0  -999.25  -999.25  -999.25  0.0  0.0
  2870.4  2870.3999  0.0  1.0  0.0  -999.25  -999.25  -999.25  0.0  0.0
  2870.6  2870.6001  0.0  1.0  0.0  -999.25  -999.25  -999.25  0.0  0.0
  2870.8  2870.8  0.0  1.0  0.0  -999.25  -999.25  -999.25  0.0  0.0
  2871.0  2871.0  0.0  1.0  0.0  -999.25  -999.25  -999.25  0.0  0.0
  2871.2  2871.2  0.0  1.0  0.0  -999.25  -999.25  -999.25  0.0  0.0
  2871.4  2871.3999  0.0  1.0  0.0  -999.25  -999.25  -999.25  0.0  0.0
  2871.6  2871.6001  0.0  1.0  0.0  -999.25  -999.25  -999.25  0.0  0.0
  2871.8  2871.8  0.0  1.0  0.0  -999.25  -999.25  -999.25  0.0  0.0
  2872.0  2872.0  0.0  1.0  0.0  -999.25  -999.25  -999.25  0.0  0.0
  2872.2  2872.2  0.0  1.0  0.0  -999.25  -999.25  -999.25  0.0  0.0
  2872.4  2872.3999  0.0  1.0  0.0  -999.25  -999.25  -999.25  0.0  0.0
  2872.6  2872.6001  0.0  1.0  0.0  -999.25  -999.25  -999.25  0.0  0.0
  2872.8  2872.8  0.0  1.0  0.0  -999.25  -999.25  -999.25  0.0  0.0
  2873.0  2873.0  0.0  1.0  0.0  -999.25  -999.25  -999.25  0.0  0.0
  2873.2  2873.2  0.0  1.0  0.0  -999.25  -999.25  -999.25  0.0  0.0
  2873.4  2873.3999  0.0  1.0  0.0  -999.25  -999.25  -999.25  0.0  0.0
  2873.6  2873.6001  0.0  1.0  0.0  -999.25  -999.25  -999.25  0.0  0.0
  2873.8  2873.8  0.0  1.0  0.0  -999.25  -999.25  -999.25  0.0  0.0
  2874.0  2874.0  0.0  1.0  0.0  -999.25  -999.25  -999.25  0.0  0.0
  2874.2  2874.2  0.0  1.0  0.0  -999.25  -999.25  -999.25  0.0  0.0
  2874.4  2874.3999  0.0  1.0  0.0  -999.25  -999.25  -999.25  0.0  0.0
  2874.6  2874.6001  0.0  1.0  0.0  -999.25  -999.25  -999.25  0.0  0.0
  2874.8  2874.8  0.0  1.0  0.0  -999.25  -999.25  -999.25  0.0  0.0
  2875.0  2875.0  0.0  1.0  0.0  -999.25  -999.25  -999.25  0.0  0.0
  2875.2  2875.2  0.0  1.0  0.0  -999.25  -999.25  -999.25  0.0  0.0
